{"cantidad":4027,"total":4027,"inicio":0,"parametros":{},"localidades_censales":[{"id":"10007010","nombre":"Chuchucaruana","fuente":"INDEC","provincia":{"id":"10","nombre":"Catamarca"},"departamento":{"id":"10007","nombre":"Ambato"},"municipio":{"id":"100028","nombre":"Los Varela"},"categoria":"Localidad simple","funcion":null,"centroide":{"lon":-65.8379274465406,"lat":-27.921401190208}},{"id":"10007020","nombre":"Colpes","fuente":"INDEC","provincia":{"id":"10","nombre":"Catamarca"},"departamento":{"id":"10007","nombre":"Ambato"},"municipio":{"id":"100014","nombre":"La Puerta"},"categoria":"Localidad simple","funcion":null,"centroide":{"lon":-65.8137406100675,"lat":-28.0584819543014}},{"id":"10007030","nombre":"El Bolsón","fuente":"INDEC","provincia":{"id":"10","nombre":"Catamarca"},"departamento":{"id":"10007","nombre":"Ambato"},"municipio":{"id":"100028","nombre":"Los Varela"},"categoria":"Localidad simple","funcion":null,"centroide":{"lon":-65.8796316883808,"lat":-27.9034866965853}},{"id":"10007040","nombre":"El Rodeo","fuente":"INDEC","provincia":{"id":"10","nombre":"Catamarca"},"departamento":{"id":"10007","nombre":"Ambato"},"municipio":{"id":"100007","nombre":"El Rodeo"},"categoria":"Localidad simple","funcion":null,"centroide":{"lon":-65.8738600634115,"lat":-28.2141516424861}},{"id":"10007050","nombre":"Huaycama","fuente":"INDEC","provincia":{"id":"10","nombre":"Catamarca"},"departamento":{"id":"10007","nombre":"Ambato"},"municipio":{"id":"100014","nombre":"La Puerta"},"categoria":"Localidad simple","funcion":null,"centroide":{"lon":-65.7966563124466,"lat":-28.1233967130035}},{"id":"10007055","nombre":"Isla Larga","fuente":"INDEC","provincia":{"id":"10","nombre":"Catamarca"},"departamento":{"id":"10007","nombre":"Ambato"},"municipio":{"id":"100014","nombre":"La Puerta"},"categoria":"Localidad simple","funcion":null,"centroide":{"lon":-65.7612255302761,"lat":-28.2332733675236}},{"id":"10007060","nombre":"La Puerta","fuente":"INDEC","provincia":{"id":"10","nombre":"Catamarca"},"departamento":{"id":"10007","nombre":"Ambato"},"municipio":{"id":"100014","nombre":"La Puerta"},"categoria":"Localidad simple","funcion":null,"centroide":{"lon":-65.7925474524669,"lat":-28.1626587737167}},{"id":"10007070","nombre":"Las Chacritas","fuente":"INDEC","provincia":{"id":"10","nombre":"Catamarca"},"departamento":{"id":"10007","nombre":"Ambato"},"municipio":{"id":"100028","nombre":"Los Varela"},"categoria":"Localidad simple","funcion":null,"centroide":{"lon":-65.9259187311532,"lat":-27.6849875494067}},{"id":"10007080","nombre":"Las Juntas","fuente":"INDEC","provincia":{"id":"10","nombre":"Catamarca"},"departamento":{"id":"10007","nombre":"Ambato"},"municipio":{"id":"100021","nombre":"Las Juntas"},"categoria":"Localidad simple","funcion":null,"centroide":{"lon":-65.8983349848346,"lat":-28.10297104946}},{"id":"10007090","nombre":"Los Castillos","fuente":"INDEC","provincia":{"id":"10","nombre":"Catamarca"},"departamento":{"id":"10007","nombre":"Ambato"},"municipio":{"id":"100028","nombre":"Los Varela"},"categoria":"Localidad simple","funcion":null,"centroide":{"lon":-65.820685723313,"lat":-27.9582295650792}},{"id":"10007100","nombre":"Los Talas","fuente":"INDEC","provincia":{"id":"10","nombre":"Catamarca"},"departamento":{"id":"10007","nombre":"Ambato"},"municipio":{"id":"100028","nombre":"Los Varela"},"categoria":"Localidad simple","funcion":null,"centroide":{"lon":-65.8639420202318,"lat":-27.956426002954}},{"id":"10007110","nombre":"Los Varela","fuente":"INDEC","provincia":{"id":"10","nombre":"Catamarca"},"departamento":{"id":"10007","nombre":"Ambato"},"municipio":{"id":"100028","nombre":"Los Varela"},"categoria":"Localidad simple","funcion":null,"centroide":{"lon":-65.8718930206442,"lat":-27.9315072697354}},{"id":"10007120","nombre":"Singuil","fuente":"INDEC","provincia":{"id":"10","nombre":"Catamarca"},"departamento":{"id":"10007","nombre":"Ambato"},"municipio":{"id":"100028","nombre":"Los Varela"},"categoria":"Localidad simple","funcion":null,"centroide":{"lon":-65.8670660017181,"lat":-27.8142168571341}},{"id":"10014010","nombre":"Ancasti","fuente":"INDEC","provincia":{"id":"10","nombre":"Catamarca"},"departamento":{"id":"10014","nombre":"Ancasti"},"municipio":{"id":"100035","nombre":"Ancasti"},"categoria":"Localidad simple","funcion":null,"centroide":{"lon":-65.499736680361,"lat":-28.8124907509088}},{"id":"10014020","nombre":"Anquincila","fuente":"INDEC","provincia":{"id":"10","nombre":"Catamarca"},"departamento":{"id":"10014","nombre":"Ancasti"},"municipio":{"id":"100035","nombre":"Ancasti"},"categoria":"Localidad simple","funcion":null,"centroide":{"lon":-65.5489731895385,"lat":-28.7469425805385}},{"id":"10014030","nombre":"La Candelaria","fuente":"INDEC","provincia":{"id":"10","nombre":"Catamarca"},"departamento":{"id":"10014","nombre":"Ancasti"},"municipio":{"id":"100035","nombre":"Ancasti"},"categoria":"Localidad simple","funcion":null,"centroide":{"lon":-65.4275543142861,"lat":-28.7010569795431}},{"id":"10014040","nombre":"La Majada","fuente":"INDEC","provincia":{"id":"10","nombre":"Catamarca"},"departamento":{"id":"10014","nombre":"Ancasti"},"municipio":{"id":"100035","nombre":"Ancasti"},"categoria":"Localidad simple","funcion":null,"centroide":{"lon":-65.5447826327556,"lat":-29.0325413290139}},{"id":"10014050","nombre":"Yerba Buena","fuente":"INDEC","provincia":{"id":"10","nombre":"Catamarca"},"departamento":{"id":"10014","nombre":"Ancasti"},"municipio":{"id":"100035","nombre":"Ancasti"},"categoria":"Localidad simple","funcion":null,"centroide":{"lon":-65.463124465847,"lat":-29.0061960056338}},{"id":"10021010","nombre":"Amanao","fuente":"INDEC","provincia":{"id":"10","nombre":"Catamarca"},"departamento":{"id":"10021","nombre":"Andalgalá"},"municipio":{"id":"100049","nombre":"Andalgalá"},"categoria":"Localidad simple","funcion":null,"centroide":{"lon":-66.5046088272568,"lat":-27.5356385328528}},{"id":"10021020","nombre":"Andalgalá","fuente":"INDEC","provincia":{"id":"10","nombre":"Catamarca"},"departamento":{"id":"10021","nombre":"Andalgalá"},"municipio":{"id":"100049","nombre":"Andalgalá"},"categoria":"Localidad simple","funcion":null,"centroide":{"lon":-66.3212501175486,"lat":-27.5901594446266}},{"id":"10021030","nombre":"Chaquiago","fuente":"INDEC","provincia":{"id":"10","nombre":"Catamarca"},"departamento":{"id":"10021","nombre":"Andalgalá"},"municipio":{"id":"100049","nombre":"Andalgalá"},"categoria":"Localidad simple","funcion":null,"centroide":{"lon":-66.332473305587,"lat":-27.5489522882567}},{"id":"10021040","nombre":"Choya","fuente":"INDEC","provincia":{"id":"10","nombre":"Catamarca"},"departamento":{"id":"10021","nombre":"Andalgalá"},"municipio":{"id":"100049","nombre":"Andalgalá"},"categoria":"Localidad simple","funcion":null,"centroide":{"lon":-66.3851021052175,"lat":-27.5248067824736}},{"id":"10021050","nombre":"El Alamito","fuente":"INDEC","provincia":{"id":"10","nombre":"Catamarca"},"departamento":{"id":"10021","nombre":"Andalgalá"},"municipio":{"id":"100042","nombre":"Aconquija"},"categoria":"Localidad simple","funcion":null,"centroide":{"lon":-66.0251729290323,"lat":-27.506521991994}},{"id":"10021060","nombre":"El Lindero","fuente":"INDEC","provincia":{"id":"10","nombre":"Catamarca"},"departamento":{"id":"10021","nombre":"Andalgalá"},"municipio":{"id":"100042","nombre":"Aconquija"},"categoria":"Localidad simple","funcion":null,"centroide":{"lon":-66.009792991327,"lat":-27.4683814965123}},{"id":"10021070","nombre":"El Potrero","fuente":"INDEC","provincia":{"id":"10","nombre":"Catamarca"},"departamento":{"id":"10021","nombre":"Andalgalá"},"municipio":{"id":"100049","nombre":"Andalgalá"},"categoria":"Localidad simple","funcion":null,"centroide":{"lon":-66.3220375353521,"lat":-27.505754555869}},{"id":"10028010","nombre":"Antofagasta de la Sierra","fuente":"INDEC","provincia":{"id":"10","nombre":"Catamarca"},"departamento":{"id":"10028","nombre":"Antofagasta de la Sierra"},"municipio":{"id":"100056","nombre":"Antofagasta de la Sierra"},"categoria":"Localidad simple","funcion":null,"centroide":{"lon":-67.4074485206592,"lat":-26.0613194257796}},{"id":"10028030","nombre":"El Peñón","fuente":"INDEC","provincia":{"id":"10","nombre":"Catamarca"},"departamento":{"id":"10028","nombre":"Antofagasta de la Sierra"},"municipio":{"id":"100056","nombre":"Antofagasta de la Sierra"},"categoria":"Localidad simple","funcion":null,"centroide":{"lon":-67.2646290297178,"lat":-26.4788149441845}},{"id":"10028040","nombre":"Los Nacimientos","fuente":"INDEC","provincia":{"id":"10","nombre":"Catamarca"},"departamento":{"id":"10028","nombre":"Antofagasta de la Sierra"},"municipio":{"id":"100056","nombre":"Antofagasta de la Sierra"},"categoria":"Localidad simple","funcion":null,"centroide":{"lon":-67.3712884343386,"lat":-25.823254129105}},{"id":"10035010","nombre":"Barranca Larga","fuente":"INDEC","provincia":{"id":"10","nombre":"Catamarca"},"departamento":{"id":"10035","nombre":"Belén"},"municipio":{"id":"100119","nombre":"Villa Vil"},"categoria":"Localidad simple","funcion":null,"centroide":{"lon":-66.7385082972889,"lat":-26.983331397088}},{"id":"10035020","nombre":"Belén","fuente":"INDEC","provincia":{"id":"10","nombre":"Catamarca"},"departamento":{"id":"10035","nombre":"Belén"},"municipio":{"id":"100063","nombre":"Belén"},"categoria":"Localidad simple","funcion":null,"centroide":{"lon":-67.0264948058202,"lat":-27.6500358414945}},{"id":"10035030","nombre":"Cóndor Huasi","fuente":"INDEC","provincia":{"id":"10","nombre":"Catamarca"},"departamento":{"id":"10035","nombre":"Belén"},"municipio":{"id":"100091","nombre":"Pozo de Piedra"},"categoria":"Localidad simple","funcion":null,"centroide":{"lon":-67.100274458247,"lat":-27.4935361491344}},{"id":"10035040","nombre":"Corral Quemado","fuente":"INDEC","provincia":{"id":"10","nombre":"Catamarca"},"departamento":{"id":"10035","nombre":"Belén"},"municipio":{"id":"100070","nombre":"Corral Quemado"},"categoria":"Localidad simple","funcion":null,"centroide":{"lon":-66.9455831622372,"lat":-27.1416106759935}},{"id":"10035050","nombre":"El Durazno","fuente":"INDEC","provincia":{"id":"10","nombre":"Catamarca"},"departamento":{"id":"10035","nombre":"Belén"},"municipio":{"id":"100098","nombre":"Puerta de Corral Quemado"},"categoria":"Localidad simple","funcion":null,"centroide":{"lon":-67.0387945932704,"lat":-27.2540178064986}},{"id":"10035055","nombre":"El Eje","fuente":"INDEC","provincia":{"id":"10","nombre":"Catamarca"},"departamento":{"id":"10035","nombre":"Belén"},"municipio":{"id":"100112","nombre":"San Fernando"},"categoria":"Localidad simple","funcion":null,"centroide":{"lon":-66.8746096761014,"lat":-27.2768408479778}},{"id":"10035060","nombre":"Farallón Negro","fuente":"INDEC","provincia":{"id":"10","nombre":"Catamarca"},"departamento":{"id":"10035","nombre":"Belén"},"municipio":{"id":"100077","nombre":"Hualfin"},"categoria":"Localidad simple","funcion":null,"centroide":{"lon":-66.6805016038543,"lat":-27.3060760682746}},{"id":"10035070","nombre":"Hualfín","fuente":"INDEC","provincia":{"id":"10","nombre":"Catamarca"},"departamento":{"id":"10035","nombre":"Belén"},"municipio":{"id":"100077","nombre":"Hualfin"},"categoria":"Localidad simple","funcion":null,"centroide":{"lon":-66.8257494663378,"lat":-27.2251089488391}},{"id":"10035080","nombre":"Jacipunco","fuente":"INDEC","provincia":{"id":"10","nombre":"Catamarca"},"departamento":{"id":"10035","nombre":"Belén"},"municipio":{"id":"100098","nombre":"Puerta de Corral Quemado"},"categoria":"Localidad simple","funcion":null,"centroide":{"lon":-67.0085352053694,"lat":-27.2421200297693}},{"id":"10035085","nombre":"La Ciénaga","fuente":"INDEC","provincia":{"id":"10","nombre":"Catamarca"},"departamento":{"id":"10035","nombre":"Belén"},"municipio":{"id":"100105","nombre":"Puerta de San José"},"categoria":"Localidad simple","funcion":null,"centroide":{"lon":-66.977309600722,"lat":-27.4884967392703}},{"id":"10035095","nombre":"Laguna Blanca","fuente":"INDEC","provincia":{"id":"10","nombre":"Catamarca"},"departamento":{"id":"10035","nombre":"Belén"},"municipio":{"id":"100119","nombre":"Villa Vil"},"categoria":"Localidad simple","funcion":null,"centroide":{"lon":-66.9425520401104,"lat":-26.5860584008769}},{"id":"10035090","nombre":"La Puntilla","fuente":"INDEC","provincia":{"id":"10","nombre":"Catamarca"},"departamento":{"id":"10035","nombre":"Belén"},"municipio":{"id":"100063","nombre":"Belén"},"categoria":"Localidad simple","funcion":null,"centroide":{"lon":-66.9952588804068,"lat":-27.6847541657559}},{"id":"10035097","nombre":"Las Barrancas","fuente":"INDEC","provincia":{"id":"10","nombre":"Catamarca"},"departamento":{"id":"10035","nombre":"Belén"},"municipio":{"id":"100091","nombre":"Pozo de Piedra"},"categoria":"Localidad simple","funcion":null,"centroide":{"lon":-67.1113395574137,"lat":-27.5235366470402}},{"id":"10035100","nombre":"Las Juntas","fuente":"INDEC","provincia":{"id":"10","nombre":"Catamarca"},"departamento":{"id":"10035","nombre":"Belén"},"municipio":{"id":"100091","nombre":"Pozo de Piedra"},"categoria":"Localidad simple","funcion":null,"centroide":{"lon":-67.1201580764352,"lat":-27.5360910074414}},{"id":"10035092","nombre":"La Toma","fuente":"INDEC","provincia":{"id":"10","nombre":"Catamarca"},"departamento":{"id":"10035","nombre":"Belén"},"municipio":{"id":"100091","nombre":"Pozo de Piedra"},"categoria":"Localidad simple","funcion":null,"centroide":{"lon":-67.1031901400037,"lat":-27.5912076261904}},{"id":"10035110","nombre":"Londres","fuente":"INDEC","provincia":{"id":"10","nombre":"Catamarca"},"departamento":{"id":"10035","nombre":"Belén"},"municipio":{"id":"100084","nombre":"Londres"},"categoria":"Localidad simple","funcion":null,"centroide":{"lon":-67.1341623957122,"lat":-27.7134561207369}},{"id":"10035120","nombre":"Los Nacimientos","fuente":"INDEC","provincia":{"id":"10","nombre":"Catamarca"},"departamento":{"id":"10035","nombre":"Belén"},"municipio":{"id":"100077","nombre":"Hualfin"},"categoria":"Localidad simple","funcion":null,"centroide":{"lon":-66.7351093168492,"lat":-27.1639428785887}},{"id":"10035125","nombre":"Pozo de Piedra","fuente":"INDEC","provincia":{"id":"10","nombre":"Catamarca"},"departamento":{"id":"10035","nombre":"Belén"},"municipio":{"id":"100091","nombre":"Pozo de Piedra"},"categoria":"Localidad simple","funcion":null,"centroide":{"lon":-67.1341508107766,"lat":-27.5680151520368}},{"id":"10035130","nombre":"Puerta de Corral Quemado","fuente":"INDEC","provincia":{"id":"10","nombre":"Catamarca"},"departamento":{"id":"10035","nombre":"Belén"},"municipio":{"id":"100098","nombre":"Puerta de Corral Quemado"},"categoria":"Localidad simple","funcion":null,"centroide":{"lon":-66.9344097509851,"lat":-27.2275687488605}},{"id":"10035140","nombre":"Puerta de San José","fuente":"INDEC","provincia":{"id":"10","nombre":"Catamarca"},"departamento":{"id":"10035","nombre":"Belén"},"municipio":{"id":"100105","nombre":"Puerta de San José"},"categoria":"Localidad simple","funcion":null,"centroide":{"lon":-67.0187087467868,"lat":-27.5470355905703}},{"id":"10035145","nombre":"San Fernando","fuente":"INDEC","provincia":{"id":"10","nombre":"Catamarca"},"departamento":{"id":"10035","nombre":"Belén"},"municipio":{"id":"100112","nombre":"San Fernando"},"categoria":"Localidad simple","funcion":null,"centroide":{"lon":-66.8980203740392,"lat":-27.3341999168915}},{"id":"10035147","nombre":"Soledad","fuente":"INDEC","provincia":{"id":"10","nombre":"Catamarca"},"departamento":{"id":"10035","nombre":"Belén"},"municipio":{"id":"100098","nombre":"Puerta de Corral Quemado"},"categoria":"Localidad simple","funcion":null,"centroide":{"lon":-67.0484980545037,"lat":-27.2632952454168}},{"id":"10035150","nombre":"Villa Vil","fuente":"INDEC","provincia":{"id":"10","nombre":"Catamarca"},"departamento":{"id":"10035","nombre":"Belén"},"municipio":{"id":"100119","nombre":"Villa Vil"},"categoria":"Localidad simple","funcion":null,"centroide":{"lon":-66.8230688043799,"lat":-27.094081353608}},{"id":"10042030","nombre":"Capayán","fuente":"INDEC","provincia":{"id":"10","nombre":"Catamarca"},"departamento":{"id":"10042","nombre":"Capayán"},"municipio":{"id":"100126","nombre":"Capayán"},"categoria":"Localidad simple","funcion":null,"centroide":{"lon":-66.0478111566998,"lat":-28.7629707502913}},{"id":"10042040","nombre":"Chumbicha","fuente":"INDEC","provincia":{"id":"10","nombre":"Catamarca"},"departamento":{"id":"10042","nombre":"Capayán"},"municipio":{"id":"100126","nombre":"Capayán"},"categoria":"Localidad simple","funcion":null,"centroide":{"lon":-66.2374360436486,"lat":-28.8534848169642}},{"id":"10042050","nombre":"Colonia del Valle","fuente":"INDEC","provincia":{"id":"10","nombre":"Catamarca"},"departamento":{"id":"10042","nombre":"Capayán"},"municipio":{"id":"100133","nombre":"Huillapima"},"categoria":"Localidad simple","funcion":null,"centroide":{"lon":-65.8783630511515,"lat":-28.6475850564047}},{"id":"10042060","nombre":"Colonia Nueva Coneta","fuente":"INDEC","provincia":{"id":"10","nombre":"Catamarca"},"departamento":{"id":"10042","nombre":"Capayán"},"municipio":{"id":"100133","nombre":"Huillapima"},"categoria":"Localidad simple","funcion":null,"centroide":{"lon":-65.8454482057699,"lat":-28.5735601127415}},{"id":"10042070","nombre":"Concepción","fuente":"INDEC","provincia":{"id":"10","nombre":"Catamarca"},"departamento":{"id":"10042","nombre":"Capayán"},"municipio":{"id":"100133","nombre":"Huillapima"},"categoria":"Localidad simple","funcion":null,"centroide":{"lon":-66.0648924635864,"lat":-28.687117572462}},{"id":"10042080","nombre":"Coneta","fuente":"INDEC","provincia":{"id":"10","nombre":"Catamarca"},"departamento":{"id":"10042","nombre":"Capayán"},"municipio":{"id":"100133","nombre":"Huillapima"},"categoria":"Localidad simple","funcion":null,"centroide":{"lon":-65.8876676971792,"lat":-28.5779727695993}},{"id":"10042090","nombre":"El Bañado","fuente":"INDEC","provincia":{"id":"10","nombre":"Catamarca"},"departamento":{"id":"10042","nombre":"Capayán"},"municipio":{"id":"100133","nombre":"Huillapima"},"categoria":"Localidad simple","funcion":null,"centroide":{"lon":-65.8575927928488,"lat":-28.621445715999}},{"id":"10042100","nombre":"Huillapima","fuente":"INDEC","provincia":{"id":"10","nombre":"Catamarca"},"departamento":{"id":"10042","nombre":"Capayán"},"municipio":{"id":"100133","nombre":"Huillapima"},"categoria":"Localidad simple","funcion":null,"centroide":{"lon":-65.9788924467878,"lat":-28.7257822138396}},{"id":"10042105","nombre":"Las Palmas","fuente":"INDEC","provincia":{"id":"10","nombre":"Catamarca"},"departamento":{"id":"10042","nombre":"Capayán"},"municipio":{"id":"100126","nombre":"Capayán"},"categoria":"Localidad simple","funcion":null,"centroide":{"lon":-66.1805449714616,"lat":-28.7426855728329}},{"id":"10042110","nombre":"Los Angeles","fuente":"INDEC","provincia":{"id":"10","nombre":"Catamarca"},"departamento":{"id":"10042","nombre":"Capayán"},"municipio":{"id":"100133","nombre":"Huillapima"},"categoria":"Localidad simple","funcion":null,"centroide":{"lon":-65.9556625928682,"lat":-28.5221476801225}},{"id":"10042120","nombre":"Miraflores","fuente":"INDEC","provincia":{"id":"10","nombre":"Catamarca"},"departamento":{"id":"10042","nombre":"Capayán"},"municipio":{"id":"100133","nombre":"Huillapima"},"categoria":"Localidad simple","funcion":null,"centroide":{"lon":-65.9038333977687,"lat":-28.5992923387222}},{"id":"10042130","nombre":"San Martín","fuente":"INDEC","provincia":{"id":"10","nombre":"Catamarca"},"departamento":{"id":"10042","nombre":"Capayán"},"municipio":{"id":"100126","nombre":"Capayán"},"categoria":"Localidad simple","funcion":null,"centroide":{"lon":-65.7749657917283,"lat":-29.2212290393625}},{"id":"10042140","nombre":"San Pablo","fuente":"INDEC","provincia":{"id":"10","nombre":"Catamarca"},"departamento":{"id":"10042","nombre":"Capayán"},"municipio":{"id":"100133","nombre":"Huillapima"},"categoria":"Localidad simple","funcion":null,"centroide":{"lon":-66.0343942122229,"lat":-28.700781267226}},{"id":"10042150","nombre":"San Pedro","fuente":"INDEC","provincia":{"id":"10","nombre":"Catamarca"},"departamento":{"id":"10042","nombre":"Capayán"},"municipio":{"id":"100126","nombre":"Capayán"},"categoria":"Localidad simple","funcion":null,"centroide":{"lon":-66.1270167477957,"lat":-28.741855603575}},{"id":"10049050","nombre":"La Estancita","fuente":"INDEC","provincia":{"id":"10","nombre":"Catamarca"},"departamento":{"id":"10049","nombre":"Capital"},"municipio":{"id":"100140","nombre":"San Fernando del Valle de Catamarca"},"categoria":"Localidad simple","funcion":null,"centroide":{"lon":-65.845854949245,"lat":-28.4661627929706}},{"id":"10049030","nombre":"San Fernando del Valle de Catamarca","fuente":"INDEC","provincia":{"id":"10","nombre":"Catamarca"},"departamento":{"id":"10049","nombre":"Capital"},"municipio":{"id":"100140","nombre":"San Fernando del Valle de Catamarca"},"categoria":"Componente de localidad compuesta","funcion":null,"centroide":{"lon":-65.7889422830592,"lat":-28.4680084108186}},{"id":"10056020","nombre":"Guayamba","fuente":"INDEC","provincia":{"id":"10","nombre":"Catamarca"},"departamento":{"id":"10056","nombre":"El Alto"},"municipio":{"id":"100147","nombre":"El Alto"},"categoria":"Localidad simple","funcion":null,"centroide":{"lon":-65.4017320767557,"lat":-28.3460568155283}},{"id":"10056030","nombre":"Infanzón","fuente":"INDEC","provincia":{"id":"10","nombre":"Catamarca"},"departamento":{"id":"10056","nombre":"El Alto"},"municipio":{"id":"100147","nombre":"El Alto"},"categoria":"Localidad simple","funcion":null,"centroide":{"lon":-65.4051793184525,"lat":-28.5792181346935}},{"id":"10056040","nombre":"Los Corrales","fuente":"INDEC","provincia":{"id":"10","nombre":"Catamarca"},"departamento":{"id":"10056","nombre":"El Alto"},"municipio":{"id":"100147","nombre":"El Alto"},"categoria":"Localidad simple","funcion":null,"centroide":{"lon":-65.3264516029564,"lat":-28.4934495860478}},{"id":"10056050","nombre":"Tapso","fuente":"INDEC","provincia":{"id":"10","nombre":"Catamarca"},"departamento":{"id":"10056","nombre":"El Alto"},"municipio":{"id":"100154","nombre":"Tapso"},"categoria":"Componente de localidad compuesta","funcion":null,"centroide":{"lon":-65.1029494093968,"lat":-28.4054820095884}},{"id":"10056060","nombre":"Vilismán","fuente":"INDEC","provincia":{"id":"10","nombre":"Catamarca"},"departamento":{"id":"10056","nombre":"El Alto"},"municipio":{"id":"100147","nombre":"El Alto"},"categoria":"Localidad simple","funcion":null,"centroide":{"lon":-65.4337680389204,"lat":-28.4972031395527}},{"id":"10056010","nombre":"Villa Concepcion del Alto","fuente":"INDEC","provincia":{"id":"10","nombre":"Catamarca"},"departamento":{"id":"10056","nombre":"El Alto"},"municipio":{"id":"100147","nombre":"El Alto"},"categoria":"Localidad simple","funcion":null,"centroide":{"lon":-65.3644100118657,"lat":-28.3105289310144}},{"id":"10063020","nombre":"Pomancillo Este","fuente":"INDEC","provincia":{"id":"10","nombre":"Catamarca"},"departamento":{"id":"10063","nombre":"Fray Mamerto Esquiú"},"municipio":{"id":"100161","nombre":"Fray Mamerto Esquiú"},"categoria":"Localidad simple","funcion":null,"centroide":{"lon":-65.7209898167255,"lat":-28.3029043029118}},{"id":"10063030","nombre":"Pomancillo Oeste","fuente":"INDEC","provincia":{"id":"10","nombre":"Catamarca"},"departamento":{"id":"10063","nombre":"Fray Mamerto Esquiú"},"municipio":{"id":"100161","nombre":"Fray Mamerto Esquiú"},"categoria":"Localidad simple","funcion":null,"centroide":{"lon":-65.7299475813544,"lat":-28.3031988022332}},{"id":"10063040","nombre":"San José","fuente":"INDEC","provincia":{"id":"10","nombre":"Catamarca"},"departamento":{"id":"10063","nombre":"Fray Mamerto Esquiú"},"municipio":{"id":"100161","nombre":"Fray Mamerto Esquiú"},"categoria":"Componente de localidad compuesta","funcion":null,"centroide":{"lon":-65.708383858994,"lat":-28.4201081680484}},{"id":"10063050","nombre":"Villa Las Pirquitas","fuente":"INDEC","provincia":{"id":"10","nombre":"Catamarca"},"departamento":{"id":"10063","nombre":"Fray Mamerto Esquiú"},"municipio":{"id":"100161","nombre":"Fray Mamerto Esquiú"},"categoria":"Localidad simple","funcion":null,"centroide":{"lon":-65.7317839843282,"lat":-28.2802797854743}},{"id":"10070010","nombre":"Casa de Piedra","fuente":"INDEC","provincia":{"id":"10","nombre":"Catamarca"},"departamento":{"id":"10070","nombre":"La Paz"},"municipio":{"id":"100126","nombre":"Capayán"},"categoria":"Localidad simple","funcion":null,"centroide":{"lon":-65.523502361284,"lat":-29.605009197535}},{"id":"10070020","nombre":"El Aybal","fuente":"INDEC","provincia":{"id":"10","nombre":"Catamarca"},"departamento":{"id":"10070","nombre":"La Paz"},"municipio":{"id":"100175","nombre":"Recreo"},"categoria":"Localidad simple","funcion":null,"centroide":{"lon":-65.3618879096554,"lat":-29.1091983434773}},{"id":"10070030","nombre":"El Bañado","fuente":"INDEC","provincia":{"id":"10","nombre":"Catamarca"},"departamento":{"id":"10070","nombre":"La Paz"},"municipio":{"id":"100175","nombre":"Recreo"},"categoria":"Localidad simple","funcion":null,"centroide":{"lon":-65.4380478898587,"lat":-29.1940248740841}},{"id":"10070040","nombre":"El Divisadero","fuente":"INDEC","provincia":{"id":"10","nombre":"Catamarca"},"departamento":{"id":"10070","nombre":"La Paz"},"municipio":{"id":"100175","nombre":"Recreo"},"categoria":"Localidad simple","funcion":null,"centroide":{"lon":-65.4524137614175,"lat":-29.2037971975401}},{"id":"10070050","nombre":"El Quimilo","fuente":"INDEC","provincia":{"id":"10","nombre":"Catamarca"},"departamento":{"id":"10070","nombre":"La Paz"},"municipio":{"id":"100175","nombre":"Recreo"},"categoria":"Localidad simple","funcion":null,"centroide":{"lon":-65.4006784418377,"lat":-29.9046203528016}},{"id":"10070060","nombre":"Esquiú","fuente":"INDEC","provincia":{"id":"10","nombre":"Catamarca"},"departamento":{"id":"10070","nombre":"La Paz"},"municipio":{"id":"100175","nombre":"Recreo"},"categoria":"Localidad simple","funcion":null,"centroide":{"lon":-65.2898287859815,"lat":-29.3790661944991}},{"id":"10070070","nombre":"Icaño","fuente":"INDEC","provincia":{"id":"10","nombre":"Catamarca"},"departamento":{"id":"10070","nombre":"La Paz"},"municipio":{"id":"100168","nombre":"Icaño"},"categoria":"Localidad simple","funcion":null,"centroide":{"lon":-65.3303209607385,"lat":-28.9192754006731}},{"id":"10070080","nombre":"La Dorada","fuente":"INDEC","provincia":{"id":"10","nombre":"Catamarca"},"departamento":{"id":"10070","nombre":"La Paz"},"municipio":{"id":"100175","nombre":"Recreo"},"categoria":"Localidad simple","funcion":null,"centroide":{"lon":-65.481025509459,"lat":-29.242675656388}},{"id":"10070090","nombre":"La Guardia","fuente":"INDEC","provincia":{"id":"10","nombre":"Catamarca"},"departamento":{"id":"10070","nombre":"La Paz"},"municipio":{"id":"100175","nombre":"Recreo"},"categoria":"Localidad simple","funcion":null,"centroide":{"lon":-65.453619266804,"lat":-29.5561339073476}},{"id":"10070100","nombre":"Las Esquinas","fuente":"INDEC","provincia":{"id":"10","nombre":"Catamarca"},"departamento":{"id":"10070","nombre":"La Paz"},"municipio":{"id":"100168","nombre":"Icaño"},"categoria":"Localidad simple","funcion":null,"centroide":{"lon":-65.1106305221057,"lat":-28.7403421672965}},{"id":"10070110","nombre":"Las Palmitas","fuente":"INDEC","provincia":{"id":"10","nombre":"Catamarca"},"departamento":{"id":"10070","nombre":"La Paz"},"municipio":{"id":null,"nombre":null},"categoria":"Localidad simple","funcion":null,"centroide":{"lon":-64.9863004397278,"lat":-28.6373525436754}},{"id":"10070120","nombre":"Quirós","fuente":"INDEC","provincia":{"id":"10","nombre":"Catamarca"},"departamento":{"id":"10070","nombre":"La Paz"},"municipio":{"id":"100168","nombre":"Icaño"},"categoria":"Localidad simple","funcion":null,"centroide":{"lon":-65.1109786102691,"lat":-28.7856405433085}},{"id":"10070130","nombre":"Ramblones","fuente":"INDEC","provincia":{"id":"10","nombre":"Catamarca"},"departamento":{"id":"10070","nombre":"La Paz"},"municipio":{"id":"100175","nombre":"Recreo"},"categoria":"Localidad simple","funcion":null,"centroide":{"lon":-65.3979619247027,"lat":-29.1549006293933}},{"id":"10070140","nombre":"Recreo","fuente":"INDEC","provincia":{"id":"10","nombre":"Catamarca"},"departamento":{"id":"10070","nombre":"La Paz"},"municipio":{"id":"100175","nombre":"Recreo"},"categoria":"Localidad simple","funcion":null,"centroide":{"lon":-65.0565641552447,"lat":-29.2768611237227}},{"id":"10070150","nombre":"San Antonio","fuente":"INDEC","provincia":{"id":"10","nombre":"Catamarca"},"departamento":{"id":"10070","nombre":"La Paz"},"municipio":{"id":"100168","nombre":"Icaño"},"categoria":"Localidad simple","funcion":null,"centroide":{"lon":-65.0949655869377,"lat":-28.9331053161662}},{"id":"10077010","nombre":"Amadores","fuente":"INDEC","provincia":{"id":"10","nombre":"Catamarca"},"departamento":{"id":"10077","nombre":"Paclín"},"municipio":{"id":"100182","nombre":"Paclín"},"categoria":"Localidad simple","funcion":null,"centroide":{"lon":-65.6358736025316,"lat":-28.2615756223027}},{"id":"10077040","nombre":"La Higuera","fuente":"INDEC","provincia":{"id":"10","nombre":"Catamarca"},"departamento":{"id":"10077","nombre":"Paclín"},"municipio":{"id":"100182","nombre":"Paclín"},"categoria":"Localidad simple","funcion":null,"centroide":{"lon":-65.6980753378486,"lat":-27.9417436192226}},{"id":"10077050","nombre":"La Merced","fuente":"INDEC","provincia":{"id":"10","nombre":"Catamarca"},"departamento":{"id":"10077","nombre":"Paclín"},"municipio":{"id":"100182","nombre":"Paclín"},"categoria":"Localidad simple","funcion":null,"centroide":{"lon":-65.6594951558473,"lat":-28.1546371076953}},{"id":"10077070","nombre":"Las Lajas","fuente":"INDEC","provincia":{"id":"10","nombre":"Catamarca"},"departamento":{"id":"10077","nombre":"Paclín"},"municipio":{"id":"100182","nombre":"Paclín"},"categoria":"Localidad simple","funcion":null,"centroide":{"lon":-65.7276386646069,"lat":-27.8472001361987}},{"id":"10077060","nombre":"La Viña","fuente":"INDEC","provincia":{"id":"10","nombre":"Catamarca"},"departamento":{"id":"10077","nombre":"Paclín"},"municipio":{"id":"100182","nombre":"Paclín"},"categoria":"Localidad simple","funcion":null,"centroide":{"lon":-65.5970108346067,"lat":-28.0390182049814}},{"id":"10077080","nombre":"Monte Potrero","fuente":"INDEC","provincia":{"id":"10","nombre":"Catamarca"},"departamento":{"id":"10077","nombre":"Paclín"},"municipio":{"id":"100182","nombre":"Paclín"},"categoria":"Localidad simple","funcion":null,"centroide":{"lon":-65.6595625101684,"lat":-28.1871111880341}},{"id":"10077090","nombre":"Palo Labrado","fuente":"INDEC","provincia":{"id":"10","nombre":"Catamarca"},"departamento":{"id":"10077","nombre":"Paclín"},"municipio":{"id":"100182","nombre":"Paclín"},"categoria":"Localidad simple","funcion":null,"centroide":{"lon":-65.6212275875195,"lat":-28.3019806480724}},{"id":"10077100","nombre":"San Antonio","fuente":"INDEC","provincia":{"id":"10","nombre":"Catamarca"},"departamento":{"id":"10077","nombre":"Paclín"},"municipio":{"id":"100182","nombre":"Paclín"},"categoria":"Localidad simple","funcion":null,"centroide":{"lon":-65.7110438629801,"lat":-28.0083669224685}},{"id":"10077110","nombre":"Villa de Balcozna","fuente":"INDEC","provincia":{"id":"10","nombre":"Catamarca"},"departamento":{"id":"10077","nombre":"Paclín"},"municipio":{"id":"100182","nombre":"Paclín"},"categoria":"Localidad simple","funcion":null,"centroide":{"lon":-65.7278463728793,"lat":-27.8838330513722}},{"id":"10084020","nombre":"Colana","fuente":"INDEC","provincia":{"id":"10","nombre":"Catamarca"},"departamento":{"id":"10084","nombre":"Pomán"},"municipio":{"id":"100189","nombre":"Pomán"},"categoria":"Localidad simple","funcion":null,"centroide":{"lon":-66.1600271026533,"lat":-28.3613972060566}},{"id":"10084030","nombre":"Colpes","fuente":"INDEC","provincia":{"id":"10","nombre":"Catamarca"},"departamento":{"id":"10084","nombre":"Pomán"},"municipio":{"id":"100196","nombre":"Saujil"},"categoria":"Localidad simple","funcion":null,"centroide":{"lon":-66.199040204444,"lat":-28.0590715321667}},{"id":"10084040","nombre":"El Pajonal","fuente":"INDEC","provincia":{"id":"10","nombre":"Catamarca"},"departamento":{"id":"10084","nombre":"Pomán"},"municipio":{"id":"100189","nombre":"Pomán"},"categoria":"Localidad simple","funcion":null,"centroide":{"lon":-66.2952046374586,"lat":-28.3718450482693}},{"id":"10084060","nombre":"Mutquin","fuente":"INDEC","provincia":{"id":"10","nombre":"Catamarca"},"departamento":{"id":"10084","nombre":"Pomán"},"municipio":{"id":"100185","nombre":"Mutquin"},"categoria":"Localidad simple","funcion":null,"centroide":{"lon":-66.1473862550351,"lat":-28.3208022220184}},{"id":"10084070","nombre":"Pomán","fuente":"INDEC","provincia":{"id":"10","nombre":"Catamarca"},"departamento":{"id":"10084","nombre":"Pomán"},"municipio":{"id":"100189","nombre":"Pomán"},"categoria":"Localidad simple","funcion":null,"centroide":{"lon":-66.2184974628754,"lat":-28.3967346331107}},{"id":"10084080","nombre":"Rincón","fuente":"INDEC","provincia":{"id":"10","nombre":"Catamarca"},"departamento":{"id":"10084","nombre":"Pomán"},"municipio":{"id":"100196","nombre":"Saujil"},"categoria":"Localidad simple","funcion":null,"centroide":{"lon":-66.1419095671404,"lat":-28.2235059375508}},{"id":"10084090","nombre":"San Miguel","fuente":"INDEC","provincia":{"id":"10","nombre":"Catamarca"},"departamento":{"id":"10084","nombre":"Pomán"},"municipio":{"id":"100196","nombre":"Saujil"},"categoria":"Localidad simple","funcion":null,"centroide":{"lon":-66.2059754308395,"lat":-28.139429753199}},{"id":"10084100","nombre":"Saujil","fuente":"INDEC","provincia":{"id":"10","nombre":"Catamarca"},"departamento":{"id":"10084","nombre":"Pomán"},"municipio":{"id":"100196","nombre":"Saujil"},"categoria":"Localidad simple","funcion":null,"centroide":{"lon":-66.2145148644181,"lat":-28.173337080009}},{"id":"10084110","nombre":"Siján","fuente":"INDEC","provincia":{"id":"10","nombre":"Catamarca"},"departamento":{"id":"10084","nombre":"Pomán"},"municipio":{"id":"100196","nombre":"Saujil"},"categoria":"Localidad simple","funcion":null,"centroide":{"lon":-66.2209299175292,"lat":-28.2623558875079}},{"id":"10091010","nombre":"Andalhualá","fuente":"INDEC","provincia":{"id":"10","nombre":"Catamarca"},"departamento":{"id":"10091","nombre":"Santa María"},"municipio":{"id":"100203","nombre":"San José"},"categoria":"Localidad simple","funcion":null,"centroide":{"lon":-66.049007583656,"lat":-26.8780786215366}},{"id":"10091030","nombre":"Chañar Punco","fuente":"INDEC","provincia":{"id":"10","nombre":"Catamarca"},"departamento":{"id":"10091","nombre":"Santa María"},"municipio":{"id":"100210","nombre":"Santa María"},"categoria":"Localidad simple","funcion":null,"centroide":{"lon":-66.070544241748,"lat":-26.7197283932117}},{"id":"10091040","nombre":"El Cajón","fuente":"INDEC","provincia":{"id":"10","nombre":"Catamarca"},"departamento":{"id":"10091","nombre":"Santa María"},"municipio":{"id":"100210","nombre":"Santa María"},"categoria":"Localidad simple","funcion":null,"centroide":{"lon":-66.2524070174873,"lat":-26.4035966663798}},{"id":"10091050","nombre":"El Desmonte","fuente":"INDEC","provincia":{"id":"10","nombre":"Catamarca"},"departamento":{"id":"10091","nombre":"Santa María"},"municipio":{"id":"100203","nombre":"San José"},"categoria":"Localidad simple","funcion":null,"centroide":{"lon":-66.1009905261399,"lat":-26.8812710889005}},{"id":"10091060","nombre":"El Puesto","fuente":"INDEC","provincia":{"id":"10","nombre":"Catamarca"},"departamento":{"id":"10091","nombre":"Santa María"},"municipio":{"id":"100210","nombre":"Santa María"},"categoria":"Localidad simple","funcion":null,"centroide":{"lon":-66.0404876754622,"lat":-26.6526010907644}},{"id":"10091070","nombre":"Famatanca","fuente":"INDEC","provincia":{"id":"10","nombre":"Catamarca"},"departamento":{"id":"10091","nombre":"Santa María"},"municipio":{"id":"100203","nombre":"San José"},"categoria":"Localidad simple","funcion":null,"centroide":{"lon":-66.0835413578599,"lat":-26.782170365198}},{"id":"10091080","nombre":"Fuerte Quemado","fuente":"INDEC","provincia":{"id":"10","nombre":"Catamarca"},"departamento":{"id":"10091","nombre":"Santa María"},"municipio":{"id":"100210","nombre":"Santa María"},"categoria":"Localidad simple","funcion":null,"centroide":{"lon":-66.0499844478734,"lat":-26.6212083689507}},{"id":"10091090","nombre":"La Hoyada","fuente":"INDEC","provincia":{"id":"10","nombre":"Catamarca"},"departamento":{"id":"10091","nombre":"Santa María"},"municipio":{"id":"100203","nombre":"San José"},"categoria":"Localidad simple","funcion":null,"centroide":{"lon":-66.3619993161072,"lat":-26.5436302028343}},{"id":"10091110","nombre":"Las Mojarras","fuente":"INDEC","provincia":{"id":"10","nombre":"Catamarca"},"departamento":{"id":"10091","nombre":"Santa María"},"municipio":{"id":"100210","nombre":"Santa María"},"categoria":"Localidad simple","funcion":null,"centroide":{"lon":-66.0646900529915,"lat":-26.6898182703702}},{"id":"10091130","nombre":"Punta de Balasto","fuente":"INDEC","provincia":{"id":"10","nombre":"Catamarca"},"departamento":{"id":"10091","nombre":"Santa María"},"municipio":{"id":"100203","nombre":"San José"},"categoria":"Localidad simple","funcion":null,"centroide":{"lon":-66.1407341910051,"lat":-26.9559251591153}},{"id":"10091140","nombre":"San José","fuente":"INDEC","provincia":{"id":"10","nombre":"Catamarca"},"departamento":{"id":"10091","nombre":"Santa María"},"municipio":{"id":"100203","nombre":"San José"},"categoria":"Componente de localidad compuesta","funcion":null,"centroide":{"lon":-66.069758682746,"lat":-26.8014250875105}},{"id":"10091150","nombre":"Santa María","fuente":"INDEC","provincia":{"id":"10","nombre":"Catamarca"},"departamento":{"id":"10091","nombre":"Santa María"},"municipio":{"id":"100210","nombre":"Santa María"},"categoria":"Componente de localidad compuesta","funcion":null,"centroide":{"lon":-66.046560256239,"lat":-26.6977269655562}},{"id":"10091160","nombre":"Yapes","fuente":"INDEC","provincia":{"id":"10","nombre":"Catamarca"},"departamento":{"id":"10091","nombre":"Santa María"},"municipio":{"id":"100203","nombre":"San José"},"categoria":"Localidad simple","funcion":null,"centroide":{"lon":-66.0766509064996,"lat":-26.8465143090943}},{"id":"10098010","nombre":"Alijilán","fuente":"INDEC","provincia":{"id":"10","nombre":"Catamarca"},"departamento":{"id":"10098","nombre":"Santa Rosa"},"municipio":{"id":"100213","nombre":"Los Altos"},"categoria":"Localidad simple","funcion":null,"centroide":{"lon":-65.4927230531622,"lat":-28.176244459377}},{"id":"10098015","nombre":"Ampolla","fuente":"INDEC","provincia":{"id":"10","nombre":"Catamarca"},"departamento":{"id":"10098","nombre":"Santa Rosa"},"municipio":{"id":"100217","nombre":"Santa Rosa"},"categoria":"Localidad simple","funcion":null,"centroide":{"lon":-65.3148290356311,"lat":-28.1674927418003}},{"id":"10098020","nombre":"Bañado de Ovanta","fuente":"INDEC","provincia":{"id":"10","nombre":"Catamarca"},"departamento":{"id":"10098","nombre":"Santa Rosa"},"municipio":{"id":"100217","nombre":"Santa Rosa"},"categoria":"Localidad simple","funcion":null,"centroide":{"lon":-65.3192170569012,"lat":-28.1060492467491}},{"id":"10098030","nombre":"Las Cañas","fuente":"INDEC","provincia":{"id":"10","nombre":"Catamarca"},"departamento":{"id":"10098","nombre":"Santa Rosa"},"municipio":{"id":"100217","nombre":"Santa Rosa"},"categoria":"Localidad simple","funcion":null,"centroide":{"lon":-65.2142623784416,"lat":-28.2047979078123}},{"id":"10098035","nombre":"Las Tunas","fuente":"INDEC","provincia":{"id":"10","nombre":"Catamarca"},"departamento":{"id":"10098","nombre":"Santa Rosa"},"municipio":{"id":"100217","nombre":"Santa Rosa"},"categoria":"Localidad simple","funcion":null,"centroide":{"lon":-65.3595363479832,"lat":-28.1511975392072}},{"id":"10098040","nombre":"Lavalle","fuente":"INDEC","provincia":{"id":"10","nombre":"Catamarca"},"departamento":{"id":"10098","nombre":"Santa Rosa"},"municipio":{"id":"100217","nombre":"Santa Rosa"},"categoria":"Componente de localidad compuesta","funcion":null,"centroide":{"lon":-65.1155030180842,"lat":-28.1944902800981}},{"id":"10098050","nombre":"Los Altos","fuente":"INDEC","provincia":{"id":"10","nombre":"Catamarca"},"departamento":{"id":"10098","nombre":"Santa Rosa"},"municipio":{"id":"100213","nombre":"Los Altos"},"categoria":"Localidad simple","funcion":null,"centroide":{"lon":-65.4973640431533,"lat":-28.0488590493489}},{"id":"10098060","nombre":"Manantiales","fuente":"INDEC","provincia":{"id":"10","nombre":"Catamarca"},"departamento":{"id":"10098","nombre":"Santa Rosa"},"municipio":{"id":"100213","nombre":"Los Altos"},"categoria":"Localidad simple","funcion":null,"centroide":{"lon":-65.4972447929325,"lat":-28.1370160789387}},{"id":"10098065","nombre":"Monte Redondo","fuente":"INDEC","provincia":{"id":"10","nombre":"Catamarca"},"departamento":{"id":"10098","nombre":"Santa Rosa"},"municipio":{"id":"100213","nombre":"Los Altos"},"categoria":"Localidad simple","funcion":null,"centroide":{"lon":-65.4441326034003,"lat":-28.0027421745804}},{"id":"10098070","nombre":"San Pedro","fuente":"INDEC","provincia":{"id":"10","nombre":"Catamarca"},"departamento":{"id":"10098","nombre":"Santa Rosa"},"municipio":{"id":"100217","nombre":"Santa Rosa"},"categoria":"Componente de localidad compuesta","funcion":null,"centroide":{"lon":-65.1710936471641,"lat":-27.9566143760199}},{"id":"10105010","nombre":"Anillaco","fuente":"INDEC","provincia":{"id":"10","nombre":"Catamarca"},"departamento":{"id":"10105","nombre":"Tinogasta"},"municipio":{"id":"100231","nombre":"Tinogasta"},"categoria":"Localidad simple","funcion":null,"centroide":{"lon":-67.623482702582,"lat":-27.9076268942006}},{"id":"10105050","nombre":"Copacabana","fuente":"INDEC","provincia":{"id":"10","nombre":"Catamarca"},"departamento":{"id":"10105","nombre":"Tinogasta"},"municipio":{"id":"100231","nombre":"Tinogasta"},"categoria":"Localidad simple","funcion":null,"centroide":{"lon":-67.4892656760762,"lat":-28.1787946066535}},{"id":"10105090","nombre":"El Puesto","fuente":"INDEC","provincia":{"id":"10","nombre":"Catamarca"},"departamento":{"id":"10105","nombre":"Tinogasta"},"municipio":{"id":"100231","nombre":"Tinogasta"},"categoria":"Localidad simple","funcion":null,"centroide":{"lon":-67.6304002049274,"lat":-27.9641323875359}},{"id":"10105100","nombre":"El Salado","fuente":"INDEC","provincia":{"id":"10","nombre":"Catamarca"},"departamento":{"id":"10105","nombre":"Tinogasta"},"municipio":{"id":"100231","nombre":"Tinogasta"},"categoria":"Localidad simple","funcion":null,"centroide":{"lon":-67.2533227600658,"lat":-28.3031811347636}},{"id":"10105110","nombre":"Fiambalá","fuente":"INDEC","provincia":{"id":"10","nombre":"Catamarca"},"departamento":{"id":"10105","nombre":"Tinogasta"},"municipio":{"id":"100224","nombre":"Fiambalá"},"categoria":"Localidad simple","funcion":null,"centroide":{"lon":-67.6197477034953,"lat":-27.690397183898}},{"id":"10105130","nombre":"Medanitos","fuente":"INDEC","provincia":{"id":"10","nombre":"Catamarca"},"departamento":{"id":"10105","nombre":"Tinogasta"},"municipio":{"id":"100224","nombre":"Fiambalá"},"categoria":"Localidad simple","funcion":null,"centroide":{"lon":-67.5914474397542,"lat":-27.5210384367187}},{"id":"10105140","nombre":"Palo Blanco","fuente":"INDEC","provincia":{"id":"10","nombre":"Catamarca"},"departamento":{"id":"10105","nombre":"Tinogasta"},"municipio":{"id":"100224","nombre":"Fiambalá"},"categoria":"Localidad simple","funcion":null,"centroide":{"lon":-67.7592295432626,"lat":-27.3395852802531}},{"id":"10105160","nombre":"Saujil","fuente":"INDEC","provincia":{"id":"10","nombre":"Catamarca"},"departamento":{"id":"10105","nombre":"Tinogasta"},"municipio":{"id":"100224","nombre":"Fiambalá"},"categoria":"Localidad simple","funcion":null,"centroide":{"lon":-67.6165404775332,"lat":-27.5701118794598}},{"id":"10105180","nombre":"Tinogasta","fuente":"INDEC","provincia":{"id":"10","nombre":"Catamarca"},"departamento":{"id":"10105","nombre":"Tinogasta"},"municipio":{"id":"100231","nombre":"Tinogasta"},"categoria":"Localidad simple","funcion":null,"centroide":{"lon":-67.5802695760226,"lat":-28.0637510698675}},{"id":"10112010","nombre":"El Portezuelo","fuente":"INDEC","provincia":{"id":"10","nombre":"Catamarca"},"departamento":{"id":"10112","nombre":"Valle Viejo"},"municipio":{"id":"100238","nombre":"Valle Viejo"},"categoria":"Localidad simple","funcion":null,"centroide":{"lon":-65.6433026159551,"lat":-28.4677477671536}},{"id":"10112020","nombre":"Huaycama","fuente":"INDEC","provincia":{"id":"10","nombre":"Catamarca"},"departamento":{"id":"10112","nombre":"Valle Viejo"},"municipio":{"id":"100238","nombre":"Valle Viejo"},"categoria":"Localidad simple","funcion":null,"centroide":{"lon":-65.6691553190808,"lat":-28.5121863837074}},{"id":"10112027","nombre":"Las Esquinas","fuente":"INDEC","provincia":{"id":"10","nombre":"Catamarca"},"departamento":{"id":"10112","nombre":"Valle Viejo"},"municipio":{"id":"100238","nombre":"Valle Viejo"},"categoria":"Localidad simple","funcion":null,"centroide":{"lon":-65.77071030858,"lat":-28.7151709515486}},{"id":"10112030","nombre":"Las Tejas","fuente":"INDEC","provincia":{"id":"10","nombre":"Catamarca"},"departamento":{"id":"10112","nombre":"Valle Viejo"},"municipio":{"id":"100238","nombre":"Valle Viejo"},"categoria":"Localidad simple","funcion":null,"centroide":{"lon":-65.7824312683021,"lat":-28.6585891130502}},{"id":"10112040","nombre":"San Isidro","fuente":"INDEC","provincia":{"id":"10","nombre":"Catamarca"},"departamento":{"id":"10112","nombre":"Valle Viejo"},"municipio":{"id":"100238","nombre":"Valle Viejo"},"categoria":"Componente de localidad compuesta","funcion":null,"centroide":{"lon":-65.7181915412924,"lat":-28.4531163077345}},{"id":"10112050","nombre":"Santa Cruz","fuente":"INDEC","provincia":{"id":"10","nombre":"Catamarca"},"departamento":{"id":"10112","nombre":"Valle Viejo"},"municipio":{"id":"100238","nombre":"Valle Viejo"},"categoria":"Localidad simple","funcion":null,"centroide":{"lon":-65.6681805021763,"lat":-28.5003880246539}},{"id":"06007010","nombre":"Carhué","fuente":"INDEC","provincia":{"id":"06","nombre":"Buenos Aires"},"departamento":{"id":"06007","nombre":"Adolfo Alsina"},"municipio":{"id":"060007","nombre":"Adolfo Alsina"},"categoria":"Localidad simple","funcion":null,"centroide":{"lon":-62.760041120204,"lat":-37.179441526348}},{"id":"06007020","nombre":"Colonia San Miguel Arcángel","fuente":"INDEC","provincia":{"id":"06","nombre":"Buenos Aires"},"departamento":{"id":"06007","nombre":"Adolfo Alsina"},"municipio":{"id":"060007","nombre":"Adolfo Alsina"},"categoria":"Localidad simple","funcion":null,"centroide":{"lon":-63.1177116197039,"lat":-37.4497730840701}},{"id":"06007030","nombre":"Delfín Huergo","fuente":"INDEC","provincia":{"id":"06","nombre":"Buenos Aires"},"departamento":{"id":"06007","nombre":"Adolfo Alsina"},"municipio":{"id":"060007","nombre":"Adolfo Alsina"},"categoria":"Localidad simple","funcion":null,"centroide":{"lon":-63.2331011514303,"lat":-37.3198600465141}},{"id":"06007040","nombre":"Espartillar","fuente":"INDEC","provincia":{"id":"06","nombre":"Buenos Aires"},"departamento":{"id":"06007","nombre":"Adolfo Alsina"},"municipio":{"id":"060007","nombre":"Adolfo Alsina"},"categoria":"Componente de localidad compuesta","funcion":null,"centroide":{"lon":-62.4387637810214,"lat":-37.3563345638716}},{"id":"06007050","nombre":"Esteban Agustín Gascón","fuente":"INDEC","provincia":{"id":"06","nombre":"Buenos Aires"},"departamento":{"id":"06007","nombre":"Adolfo Alsina"},"municipio":{"id":"060007","nombre":"Adolfo Alsina"},"categoria":"Localidad simple","funcion":null,"centroide":{"lon":-63.2530314226587,"lat":-37.455033706427}},{"id":"06007060","nombre":"La Pala","fuente":"INDEC","provincia":{"id":"06","nombre":"Buenos Aires"},"departamento":{"id":"06007","nombre":"Adolfo Alsina"},"municipio":{"id":"060007","nombre":"Adolfo Alsina"},"categoria":"Localidad simple","funcion":null,"centroide":{"lon":-63.365400326855,"lat":-36.6626357276546}},{"id":"06007070","nombre":"Maza","fuente":"INDEC","provincia":{"id":"06","nombre":"Buenos Aires"},"departamento":{"id":"06007","nombre":"Adolfo Alsina"},"municipio":{"id":"060007","nombre":"Adolfo Alsina"},"categoria":"Localidad simple","funcion":null,"centroide":{"lon":-63.3392712276672,"lat":-36.8002318222102}},{"id":"06007080","nombre":"Rivera","fuente":"INDEC","provincia":{"id":"06","nombre":"Buenos Aires"},"departamento":{"id":"06007","nombre":"Adolfo Alsina"},"municipio":{"id":"060007","nombre":"Adolfo Alsina"},"categoria":"Localidad simple","funcion":null,"centroide":{"lon":-63.241762387826,"lat":-37.1605187984608}},{"id":"06007100","nombre":"Villa Margarita","fuente":"INDEC","provincia":{"id":"06","nombre":"Buenos Aires"},"departamento":{"id":"06007","nombre":"Adolfo Alsina"},"municipio":{"id":"060007","nombre":"Adolfo Alsina"},"categoria":"Localidad simple","funcion":null,"centroide":{"lon":-63.2426258733029,"lat":-37.4599483385272}},{"id":"06014010","nombre":"Adolfo Gonzales Chaves","fuente":"INDEC","provincia":{"id":"06","nombre":"Buenos Aires"},"departamento":{"id":"06014","nombre":"Adolfo Gonzales Chaves"},"municipio":{"id":"060014","nombre":"Adolfo Gonzales Chaves"},"categoria":"Localidad simple","funcion":null,"centroide":{"lon":-60.0993865814513,"lat":-38.0324513470644}},{"id":"06014020","nombre":"De La Garma","fuente":"INDEC","provincia":{"id":"06","nombre":"Buenos Aires"},"departamento":{"id":"06014","nombre":"Adolfo Gonzales Chaves"},"municipio":{"id":"060014","nombre":"Adolfo Gonzales Chaves"},"categoria":"Localidad simple","funcion":null,"centroide":{"lon":-60.4168474097614,"lat":-37.9665584521229}},{"id":"06014030","nombre":"Juan E. Barra","fuente":"INDEC","provincia":{"id":"06","nombre":"Buenos Aires"},"departamento":{"id":"06014","nombre":"Adolfo Gonzales Chaves"},"municipio":{"id":"060014","nombre":"Adolfo Gonzales Chaves"},"categoria":"Localidad simple","funcion":null,"centroide":{"lon":-60.4827882028091,"lat":-37.8212422280092}},{"id":"06014040","nombre":"Vásquez","fuente":"INDEC","provincia":{"id":"06","nombre":"Buenos Aires"},"departamento":{"id":"06014","nombre":"Adolfo Gonzales Chaves"},"municipio":{"id":"060014","nombre":"Adolfo Gonzales Chaves"},"categoria":"Localidad simple","funcion":null,"centroide":{"lon":-60.1715323552449,"lat":-38.176514629101}},{"id":"06021010","nombre":"Alberti","fuente":"INDEC","provincia":{"id":"06","nombre":"Buenos Aires"},"departamento":{"id":"06021","nombre":"Alberti"},"municipio":{"id":"060021","nombre":"Alberti"},"categoria":"Localidad simple","funcion":null,"centroide":{"lon":-60.2802968721172,"lat":-35.0315781364413}},{"id":"06021020","nombre":"Coronel Seguí","fuente":"INDEC","provincia":{"id":"06","nombre":"Buenos Aires"},"departamento":{"id":"06021","nombre":"Alberti"},"municipio":{"id":"060021","nombre":"Alberti"},"categoria":"Localidad simple","funcion":null,"centroide":{"lon":-60.391831362721,"lat":-34.8675697341925}},{"id":"06021030","nombre":"Mechita","fuente":"INDEC","provincia":{"id":"06","nombre":"Buenos Aires"},"departamento":{"id":"06021","nombre":"Alberti"},"municipio":{"id":"060021","nombre":"Alberti"},"categoria":"Componente de localidad compuesta","funcion":null,"centroide":{"lon":-60.4035809631775,"lat":-35.0682353747787}},{"id":"06021040","nombre":"Pla","fuente":"INDEC","provincia":{"id":"06","nombre":"Buenos Aires"},"departamento":{"id":"06021","nombre":"Alberti"},"municipio":{"id":"060021","nombre":"Alberti"},"categoria":"Localidad simple","funcion":null,"centroide":{"lon":-60.2218996683766,"lat":-35.1228641624939}},{"id":"06021050","nombre":"Achupallas","fuente":"INDEC","provincia":{"id":"06","nombre":"Buenos Aires"},"departamento":{"id":"06021","nombre":"Alberti"},"municipio":{"id":"060021","nombre":"Alberti"},"categoria":"Localidad simple","funcion":null,"centroide":{"lon":-60.0702952268873,"lat":-35.1099832760929}},{"id":"06021060","nombre":"Villa María","fuente":"INDEC","provincia":{"id":"06","nombre":"Buenos Aires"},"departamento":{"id":"06021","nombre":"Alberti"},"municipio":{"id":"060021","nombre":"Alberti"},"categoria":"Localidad simple","funcion":null,"centroide":{"lon":-60.339840966265,"lat":-34.8878007536355}},{"id":"06021070","nombre":"Villa Ortiz","fuente":"INDEC","provincia":{"id":"06","nombre":"Buenos Aires"},"departamento":{"id":"06021","nombre":"Alberti"},"municipio":{"id":"060021","nombre":"Alberti"},"categoria":"Localidad simple","funcion":null,"centroide":{"lon":-60.3062927325252,"lat":-34.8445608464993}},{"id":"06028010","nombre":"Almirante Brown","fuente":"INDEC","provincia":{"id":"06","nombre":"Buenos Aires"},"departamento":{"id":"06028","nombre":"Almirante Brown"},"municipio":{"id":"060028","nombre":"Almirante Brown"},"categoria":"Componente de localidad compuesta","funcion":null,"centroide":{"lon":-58.3743891773161,"lat":-34.8354386860517}},{"id":"06035010","nombre":"Avellaneda","fuente":"INDEC","provincia":{"id":"06","nombre":"Buenos Aires"},"departamento":{"id":"06035","nombre":"Avellaneda"},"municipio":{"id":"060035","nombre":"Avellaneda"},"categoria":"Componente de localidad compuesta","funcion":null,"centroide":{"lon":-58.3497677273389,"lat":-34.6660332617204}},{"id":"06042010","nombre":"Ayacucho","fuente":"INDEC","provincia":{"id":"06","nombre":"Buenos Aires"},"departamento":{"id":"06042","nombre":"Ayacucho"},"municipio":{"id":"060042","nombre":"Ayacucho"},"categoria":"Localidad simple","funcion":null,"centroide":{"lon":-58.4883878541555,"lat":-37.1527598158637}},{"id":"06042020","nombre":"La Constancia","fuente":"INDEC","provincia":{"id":"06","nombre":"Buenos Aires"},"departamento":{"id":"06042","nombre":"Ayacucho"},"municipio":{"id":"060042","nombre":"Ayacucho"},"categoria":"Localidad simple","funcion":null,"centroide":{"lon":-58.7596022326105,"lat":-37.226183333452}},{"id":"06042030","nombre":"Solanet","fuente":"INDEC","provincia":{"id":"06","nombre":"Buenos Aires"},"departamento":{"id":"06042","nombre":"Ayacucho"},"municipio":{"id":"060042","nombre":"Ayacucho"},"categoria":"Localidad simple","funcion":null,"centroide":{"lon":-58.5077215781152,"lat":-36.8428436905421}},{"id":"06042040","nombre":"Udaquiola","fuente":"INDEC","provincia":{"id":"06","nombre":"Buenos Aires"},"departamento":{"id":"06042","nombre":"Ayacucho"},"municipio":{"id":"060042","nombre":"Ayacucho"},"categoria":"Localidad simple","funcion":null,"centroide":{"lon":-58.5342947787006,"lat":-36.5623187085811}},{"id":"06049010","nombre":"Ariel","fuente":"INDEC","provincia":{"id":"06","nombre":"Buenos Aires"},"departamento":{"id":"06049","nombre":"Azul"},"municipio":{"id":"060049","nombre":"Azul"},"categoria":"Localidad simple","funcion":null,"centroide":{"lon":-59.9223269682285,"lat":-36.5316623802492}},{"id":"06049020","nombre":"Azul","fuente":"INDEC","provincia":{"id":"06","nombre":"Buenos Aires"},"departamento":{"id":"06049","nombre":"Azul"},"municipio":{"id":"060049","nombre":"Azul"},"categoria":"Localidad simple","funcion":null,"centroide":{"lon":-59.8634454883445,"lat":-36.7774578361562}},{"id":"06049030","nombre":"Cacharí","fuente":"INDEC","provincia":{"id":"06","nombre":"Buenos Aires"},"departamento":{"id":"06049","nombre":"Azul"},"municipio":{"id":"060049","nombre":"Azul"},"categoria":"Localidad simple","funcion":null,"centroide":{"lon":-59.5046056501002,"lat":-36.3767030049524}},{"id":"06049040","nombre":"Chillar","fuente":"INDEC","provincia":{"id":"06","nombre":"Buenos Aires"},"departamento":{"id":"06049","nombre":"Azul"},"municipio":{"id":"060049","nombre":"Azul"},"categoria":"Localidad simple","funcion":null,"centroide":{"lon":-59.9852225680494,"lat":-37.312779171528}},{"id":"06049050","nombre":"16 de Julio","fuente":"INDEC","provincia":{"id":"06","nombre":"Buenos Aires"},"departamento":{"id":"06049","nombre":"Azul"},"municipio":{"id":"060049","nombre":"Azul"},"categoria":"Localidad simple","funcion":null,"centroide":{"lon":-60.1644141143862,"lat":-37.20009841127}},{"id":"06056010","nombre":"Bahía Blanca","fuente":"INDEC","provincia":{"id":"06","nombre":"Buenos Aires"},"departamento":{"id":"06056","nombre":"Bahía Blanca"},"municipio":{"id":"060056","nombre":"Bahía Blanca"},"categoria":"Localidad simple","funcion":null,"centroide":{"lon":-62.2654155252819,"lat":-38.7175489907773}},{"id":"06056020","nombre":"Cabildo","fuente":"INDEC","provincia":{"id":"06","nombre":"Buenos Aires"},"departamento":{"id":"06056","nombre":"Bahía Blanca"},"municipio":{"id":"060056","nombre":"Bahía Blanca"},"categoria":"Localidad simple","funcion":null,"centroide":{"lon":-61.8937811442982,"lat":-38.4851176778623}},{"id":"06056030","nombre":"General Daniel Cerri","fuente":"INDEC","provincia":{"id":"06","nombre":"Buenos Aires"},"departamento":{"id":"06056","nombre":"Bahía Blanca"},"municipio":{"id":"060056","nombre":"Bahía Blanca"},"categoria":"Localidad simple","funcion":null,"centroide":{"lon":-62.4011505169838,"lat":-38.7148047073191}},{"id":"06063010","nombre":"Balcarce","fuente":"INDEC","provincia":{"id":"06","nombre":"Buenos Aires"},"departamento":{"id":"06063","nombre":"Balcarce"},"municipio":{"id":"060063","nombre":"Balcarce"},"categoria":"Localidad simple","funcion":null,"centroide":{"lon":-58.2555392250194,"lat":-37.8463818448826}},{"id":"06063020","nombre":"Los Pinos","fuente":"INDEC","provincia":{"id":"06","nombre":"Buenos Aires"},"departamento":{"id":"06063","nombre":"Balcarce"},"municipio":{"id":"060063","nombre":"Balcarce"},"categoria":"Localidad simple","funcion":null,"centroide":{"lon":-58.3242915936291,"lat":-37.9427434742578}},{"id":"06063030","nombre":"Napaleofú","fuente":"INDEC","provincia":{"id":"06","nombre":"Buenos Aires"},"departamento":{"id":"06063","nombre":"Balcarce"},"municipio":{"id":"060063","nombre":"Balcarce"},"categoria":"Localidad simple","funcion":null,"centroide":{"lon":-58.7463729004601,"lat":-37.6231336037769}},{"id":"06063040","nombre":"Ramos Otero","fuente":"INDEC","provincia":{"id":"06","nombre":"Buenos Aires"},"departamento":{"id":"06063","nombre":"Balcarce"},"municipio":{"id":"060063","nombre":"Balcarce"},"categoria":"Localidad simple","funcion":null,"centroide":{"lon":-58.3407015552081,"lat":-37.540703547179}},{"id":"06063050","nombre":"San Agustín","fuente":"INDEC","provincia":{"id":"06","nombre":"Buenos Aires"},"departamento":{"id":"06063","nombre":"Balcarce"},"municipio":{"id":"060063","nombre":"Balcarce"},"categoria":"Localidad simple","funcion":null,"centroide":{"lon":-58.3553060799001,"lat":-38.0110509298096}},{"id":"06063060","nombre":"Villa Laguna La Brava","fuente":"INDEC","provincia":{"id":"06","nombre":"Buenos Aires"},"departamento":{"id":"06063","nombre":"Balcarce"},"municipio":{"id":"060063","nombre":"Balcarce"},"categoria":"Localidad simple","funcion":null,"centroide":{"lon":-57.9802855145777,"lat":-37.8588276163107}},{"id":"06070010","nombre":"Baradero","fuente":"INDEC","provincia":{"id":"06","nombre":"Buenos Aires"},"departamento":{"id":"06070","nombre":"Baradero"},"municipio":{"id":"060070","nombre":"Baradero"},"categoria":"Localidad simple","funcion":null,"centroide":{"lon":-59.5046802348512,"lat":-33.8120545894866}},{"id":"06070020","nombre":"Irineo Portela","fuente":"INDEC","provincia":{"id":"06","nombre":"Buenos Aires"},"departamento":{"id":"06070","nombre":"Baradero"},"municipio":{"id":"060070","nombre":"Baradero"},"categoria":"Localidad simple","funcion":null,"centroide":{"lon":-59.6716798816513,"lat":-33.9797918491477}},{"id":"06070030","nombre":"Santa Coloma","fuente":"INDEC","provincia":{"id":"06","nombre":"Buenos Aires"},"departamento":{"id":"06070","nombre":"Baradero"},"municipio":{"id":"060070","nombre":"Baradero"},"categoria":"Localidad simple","funcion":null,"centroide":{"lon":-59.559311114743,"lat":-34.059361700184}},{"id":"06070040","nombre":"Villa Alsina","fuente":"INDEC","provincia":{"id":"06","nombre":"Buenos Aires"},"departamento":{"id":"06070","nombre":"Baradero"},"municipio":{"id":"060070","nombre":"Baradero"},"categoria":"Localidad simple","funcion":null,"centroide":{"lon":-59.3902618533058,"lat":-33.9079400599979}},{"id":"06077010","nombre":"Arrecifes","fuente":"INDEC","provincia":{"id":"06","nombre":"Buenos Aires"},"departamento":{"id":"06077","nombre":"Arrecifes"},"municipio":{"id":"060077","nombre":"Arrecifes"},"categoria":"Localidad simple","funcion":null,"centroide":{"lon":-60.1086943504546,"lat":-34.0674580737828}},{"id":"06077020","nombre":"Todd","fuente":"INDEC","provincia":{"id":"06","nombre":"Buenos Aires"},"departamento":{"id":"06077","nombre":"Arrecifes"},"municipio":{"id":"060077","nombre":"Arrecifes"},"categoria":"Localidad simple","funcion":null,"centroide":{"lon":-60.1557108591817,"lat":-34.0312956499151}},{"id":"06077030","nombre":"Viña","fuente":"INDEC","provincia":{"id":"06","nombre":"Buenos Aires"},"departamento":{"id":"06077","nombre":"Arrecifes"},"municipio":{"id":"060077","nombre":"Arrecifes"},"categoria":"Localidad simple","funcion":null,"centroide":{"lon":-60.2256161202229,"lat":-33.9918997449433}},{"id":"06084010","nombre":"Barker","fuente":"INDEC","provincia":{"id":"06","nombre":"Buenos Aires"},"departamento":{"id":"06084","nombre":"Benito Juárez"},"municipio":{"id":"060084","nombre":"Benito Juárez"},"categoria":"Localidad simple","funcion":null,"centroide":{"lon":-59.3911978075624,"lat":-37.6396956007695}},{"id":"06084020","nombre":"Benito Juárez","fuente":"INDEC","provincia":{"id":"06","nombre":"Buenos Aires"},"departamento":{"id":"06084","nombre":"Benito Juárez"},"municipio":{"id":"060084","nombre":"Benito Juárez"},"categoria":"Localidad simple","funcion":null,"centroide":{"lon":-59.8049089715607,"lat":-37.6742571604814}},{"id":"06084030","nombre":"López","fuente":"INDEC","provincia":{"id":"06","nombre":"Buenos Aires"},"departamento":{"id":"06084","nombre":"Benito Juárez"},"municipio":{"id":"060084","nombre":"Benito Juárez"},"categoria":"Localidad simple","funcion":null,"centroide":{"lon":-59.6265790493393,"lat":-37.5523905908099}},{"id":"06084040","nombre":"Tedín Uriburu","fuente":"INDEC","provincia":{"id":"06","nombre":"Buenos Aires"},"departamento":{"id":"06084","nombre":"Benito Juárez"},"municipio":{"id":"060084","nombre":"Benito Juárez"},"categoria":"Localidad simple","funcion":null,"centroide":{"lon":-59.7601928177513,"lat":-37.364218614256}},{"id":"06084050","nombre":"Villa Cacique","fuente":"INDEC","provincia":{"id":"06","nombre":"Buenos Aires"},"departamento":{"id":"06084","nombre":"Benito Juárez"},"municipio":{"id":"060084","nombre":"Benito Juárez"},"categoria":"Localidad simple","funcion":null,"centroide":{"lon":-59.3967526886749,"lat":-37.6723927226471}},{"id":"06091010","nombre":"Berazategui","fuente":"INDEC","provincia":{"id":"06","nombre":"Buenos Aires"},"departamento":{"id":"06091","nombre":"Berazategui"},"municipio":{"id":"060091","nombre":"Berazategui"},"categoria":"Componente de localidad compuesta","funcion":null,"centroide":{"lon":-58.2064194737267,"lat":-34.7719598413438}},{"id":"06098010","nombre":"Berisso","fuente":"INDEC","provincia":{"id":"06","nombre":"Buenos Aires"},"departamento":{"id":"06098","nombre":"Berisso"},"municipio":{"id":"060098","nombre":"Berisso"},"categoria":"Componente de localidad compuesta","funcion":null,"centroide":{"lon":-57.8688677457687,"lat":-34.8807254387813}},{"id":"06105010","nombre":"Hale","fuente":"INDEC","provincia":{"id":"06","nombre":"Buenos Aires"},"departamento":{"id":"06105","nombre":"Bolívar"},"municipio":{"id":"060105","nombre":"Bolívar"},"categoria":"Localidad simple","funcion":null,"centroide":{"lon":-60.8544808012368,"lat":-35.9982344842931}},{"id":"06105020","nombre":"Juan F. Ibarra","fuente":"INDEC","provincia":{"id":"06","nombre":"Buenos Aires"},"departamento":{"id":"06105","nombre":"Bolívar"},"municipio":{"id":"060105","nombre":"Bolívar"},"categoria":"Localidad simple","funcion":null,"centroide":{"lon":-61.2562947609103,"lat":-36.3492149232859}},{"id":"06105040","nombre":"Paula","fuente":"INDEC","provincia":{"id":"06","nombre":"Buenos Aires"},"departamento":{"id":"06105","nombre":"Bolívar"},"municipio":{"id":"060105","nombre":"Bolívar"},"categoria":"Localidad simple","funcion":null,"centroide":{"lon":-61.0256454771107,"lat":-36.5015502397395}},{"id":"06105050","nombre":"Pirovano","fuente":"INDEC","provincia":{"id":"06","nombre":"Buenos Aires"},"departamento":{"id":"06105","nombre":"Bolívar"},"municipio":{"id":"060105","nombre":"Bolívar"},"categoria":"Localidad simple","funcion":null,"centroide":{"lon":-61.5555134814354,"lat":-36.5101281084354}},{"id":"06105060","nombre":"San Carlos de Bolívar","fuente":"INDEC","provincia":{"id":"06","nombre":"Buenos Aires"},"departamento":{"id":"06105","nombre":"Bolívar"},"municipio":{"id":"060105","nombre":"Bolívar"},"categoria":"Localidad simple","funcion":null,"centroide":{"lon":-61.1138994036572,"lat":-36.2298730869971}},{"id":"06105070","nombre":"Urdampilleta","fuente":"INDEC","provincia":{"id":"06","nombre":"Buenos Aires"},"departamento":{"id":"06105","nombre":"Bolívar"},"municipio":{"id":"060105","nombre":"Bolívar"},"categoria":"Localidad simple","funcion":null,"centroide":{"lon":-61.4161624553726,"lat":-36.4271722792919}},{"id":"06105080","nombre":"Villa Lynch Pueyrredón","fuente":"INDEC","provincia":{"id":"06","nombre":"Buenos Aires"},"departamento":{"id":"06105","nombre":"Bolívar"},"municipio":{"id":"060105","nombre":"Bolívar"},"categoria":"Localidad simple","funcion":null,"centroide":{"lon":-61.3654357763068,"lat":-36.6033051371653}},{"id":"06112010","nombre":"Asamblea","fuente":"INDEC","provincia":{"id":"06","nombre":"Buenos Aires"},"departamento":{"id":"06112","nombre":"Bragado"},"municipio":{"id":"060112","nombre":"Bragado"},"categoria":"Localidad simple","funcion":null,"centroide":{"lon":-60.4185470430294,"lat":-35.2268722732427}},{"id":"06112020","nombre":"Bragado","fuente":"INDEC","provincia":{"id":"06","nombre":"Buenos Aires"},"departamento":{"id":"06112","nombre":"Bragado"},"municipio":{"id":"060112","nombre":"Bragado"},"categoria":"Localidad simple","funcion":null,"centroide":{"lon":-60.4897339093707,"lat":-35.1155552588278}},{"id":"06112030","nombre":"Comodoro Py","fuente":"INDEC","provincia":{"id":"06","nombre":"Buenos Aires"},"departamento":{"id":"06112","nombre":"Bragado"},"municipio":{"id":"060112","nombre":"Bragado"},"categoria":"Localidad simple","funcion":null,"centroide":{"lon":-60.5213696707723,"lat":-35.3224758404375}},{"id":"06112040","nombre":"Eduardo O'Brien","fuente":"INDEC","provincia":{"id":"06","nombre":"Buenos Aires"},"departamento":{"id":"06112","nombre":"Bragado"},"municipio":{"id":"060112","nombre":"Bragado"},"categoria":"Localidad simple","funcion":null,"centroide":{"lon":-60.7605091882492,"lat":-34.9055994809841}},{"id":"06112050","nombre":"Irala","fuente":"INDEC","provincia":{"id":"06","nombre":"Buenos Aires"},"departamento":{"id":"06112","nombre":"Bragado"},"municipio":{"id":"060112","nombre":"Bragado"},"categoria":"Localidad simple","funcion":null,"centroide":{"lon":-60.6910180332824,"lat":-34.7701861705945}},{"id":"06112070","nombre":"La Limpia","fuente":"INDEC","provincia":{"id":"06","nombre":"Buenos Aires"},"departamento":{"id":"06112","nombre":"Bragado"},"municipio":{"id":"060112","nombre":"Bragado"},"categoria":"Localidad simple","funcion":null,"centroide":{"lon":-60.591667848836,"lat":-35.0798829132362}},{"id":"06112060","nombre":"Juan F. Salaberry","fuente":"INDEC","provincia":{"id":"06","nombre":"Buenos Aires"},"departamento":{"id":"06112","nombre":"Bragado"},"municipio":{"id":"060112","nombre":"Bragado"},"categoria":"Localidad simple","funcion":null,"centroide":{"lon":-60.7047620999016,"lat":-35.0615949431969}},{"id":"06112080","nombre":"Mechita","fuente":"INDEC","provincia":{"id":"06","nombre":"Buenos Aires"},"departamento":{"id":"06112","nombre":"Bragado"},"municipio":{"id":"060112","nombre":"Bragado"},"categoria":"Componente de localidad compuesta","funcion":null,"centroide":{"lon":-60.4117437751734,"lat":-35.0733395584087}},{"id":"06112090","nombre":"Olascoaga","fuente":"INDEC","provincia":{"id":"06","nombre":"Buenos Aires"},"departamento":{"id":"06112","nombre":"Bragado"},"municipio":{"id":"060112","nombre":"Bragado"},"categoria":"Localidad simple","funcion":null,"centroide":{"lon":-60.6113223341941,"lat":-35.2375612404351}},{"id":"06112100","nombre":"Warnes","fuente":"INDEC","provincia":{"id":"06","nombre":"Buenos Aires"},"departamento":{"id":"06112","nombre":"Bragado"},"municipio":{"id":"060112","nombre":"Bragado"},"categoria":"Localidad simple","funcion":null,"centroide":{"lon":-60.5381265800083,"lat":-34.9099843322177}},{"id":"06119010","nombre":"Altamirano","fuente":"INDEC","provincia":{"id":"06","nombre":"Buenos Aires"},"departamento":{"id":"06119","nombre":"Brandsen"},"municipio":{"id":"060119","nombre":"Brandsen"},"categoria":"Localidad simple","funcion":null,"centroide":{"lon":-58.1504868159157,"lat":-35.3615828022139}},{"id":"06119130","nombre":"Barrio El Mirador","fuente":"INDEC","provincia":{"id":"06","nombre":"Buenos Aires"},"departamento":{"id":"06119","nombre":"Brandsen"},"municipio":{"id":"060119","nombre":"Brandsen"},"categoria":"Localidad simple","funcion":null,"centroide":{"lon":-58.0525940890288,"lat":-35.3150707729093}},{"id":"06119020","nombre":"Barrio Las Golondrinas","fuente":"INDEC","provincia":{"id":"06","nombre":"Buenos Aires"},"departamento":{"id":"06119","nombre":"Brandsen"},"municipio":{"id":"060119","nombre":"Brandsen"},"categoria":"Localidad simple","funcion":null,"centroide":{"lon":-58.1377487463313,"lat":-34.9995077579569}},{"id":"06119030","nombre":"Barrio Los Bosquecitos","fuente":"INDEC","provincia":{"id":"06","nombre":"Buenos Aires"},"departamento":{"id":"06119","nombre":"Brandsen"},"municipio":{"id":"060119","nombre":"Brandsen"},"categoria":"Localidad simple","funcion":null,"centroide":{"lon":-58.1835007859607,"lat":-35.1050389949725}},{"id":"06119040","nombre":"Barrio Parque Las Acacias","fuente":"INDEC","provincia":{"id":"06","nombre":"Buenos Aires"},"departamento":{"id":"06119","nombre":"Brandsen"},"municipio":{"id":"060119","nombre":"Brandsen"},"categoria":"Localidad simple","funcion":null,"centroide":{"lon":-58.2755019621731,"lat":-35.1016121973816}},{"id":"06119110","nombre":"Campos de Roca","fuente":"INDEC","provincia":{"id":"06","nombre":"Buenos Aires"},"departamento":{"id":"06119","nombre":"Brandsen"},"municipio":{"id":"060119","nombre":"Brandsen"},"categoria":"Localidad simple","funcion":null,"centroide":{"lon":-58.1007756376562,"lat":-35.1185562975194}},{"id":"06119050","nombre":"Coronel Brandsen","fuente":"INDEC","provincia":{"id":"06","nombre":"Buenos Aires"},"departamento":{"id":"06119","nombre":"Brandsen"},"municipio":{"id":"060119","nombre":"Brandsen"},"categoria":"Localidad simple","funcion":null,"centroide":{"lon":-58.2373977679137,"lat":-35.1679239311576}},{"id":"06119140","nombre":"Club de Campo Las Malvinas","fuente":"INDEC","provincia":{"id":"06","nombre":"Buenos Aires"},"departamento":{"id":"06119","nombre":"Brandsen"},"municipio":{"id":"060119","nombre":"Brandsen"},"categoria":"Localidad simple","funcion":null,"centroide":{"lon":-58.2433030920635,"lat":-35.2139978115731}},{"id":"06119060","nombre":"Gómez","fuente":"INDEC","provincia":{"id":"06","nombre":"Buenos Aires"},"departamento":{"id":"06119","nombre":"Brandsen"},"municipio":{"id":"060119","nombre":"Brandsen"},"categoria":"Localidad simple","funcion":null,"centroide":{"lon":-58.1647295695433,"lat":-35.0679739062059}},{"id":"06119070","nombre":"Jeppener","fuente":"INDEC","provincia":{"id":"06","nombre":"Buenos Aires"},"departamento":{"id":"06119","nombre":"Brandsen"},"municipio":{"id":"060119","nombre":"Brandsen"},"categoria":"Localidad simple","funcion":null,"centroide":{"lon":-58.2016561578349,"lat":-35.27748443396}},{"id":"06119080","nombre":"Oliden","fuente":"INDEC","provincia":{"id":"06","nombre":"Buenos Aires"},"departamento":{"id":"06119","nombre":"Brandsen"},"municipio":{"id":"060119","nombre":"Brandsen"},"categoria":"Localidad simple","funcion":null,"centroide":{"lon":-57.9486775638617,"lat":-35.1845564497434}},{"id":"06119120","nombre":"Posada de los Lagos","fuente":"INDEC","provincia":{"id":"06","nombre":"Buenos Aires"},"departamento":{"id":"06119","nombre":"Brandsen"},"municipio":{"id":"060119","nombre":"Brandsen"},"categoria":"Localidad simple","funcion":null,"centroide":{"lon":-58.0456153769345,"lat":-35.1507268877263}},{"id":"06119090","nombre":"Samborombón","fuente":"INDEC","provincia":{"id":"06","nombre":"Buenos Aires"},"departamento":{"id":"06119","nombre":"Brandsen"},"municipio":{"id":"060119","nombre":"Brandsen"},"categoria":"Localidad simple","funcion":null,"centroide":{"lon":-58.2805297949826,"lat":-35.2206242719966}},{"id":"06126010","nombre":"Barrio Los Pioneros (Barrio Tavella)","fuente":"INDEC","provincia":{"id":"06","nombre":"Buenos Aires"},"departamento":{"id":"06126","nombre":"Campana"},"municipio":{"id":"060126","nombre":"Campana"},"categoria":"Localidad simple","funcion":null,"centroide":{"lon":-58.9597556768513,"lat":-34.2524382374994}},{"id":"06126020","nombre":"Campana","fuente":"INDEC","provincia":{"id":"06","nombre":"Buenos Aires"},"departamento":{"id":"06126","nombre":"Campana"},"municipio":{"id":"060126","nombre":"Campana"},"categoria":"Componente de localidad compuesta","funcion":null,"centroide":{"lon":-58.9591641997717,"lat":-34.1632276907392}},{"id":"06134010","nombre":"Alejandro Petión","fuente":"INDEC","provincia":{"id":"06","nombre":"Buenos Aires"},"departamento":{"id":"06134","nombre":"Cañuelas"},"municipio":{"id":"060134","nombre":"Cañuelas"},"categoria":"Localidad simple","funcion":null,"centroide":{"lon":-58.6744063952059,"lat":-34.9803870751767}},{"id":"06134020","nombre":"Barrio El Taladro","fuente":"INDEC","provincia":{"id":"06","nombre":"Buenos Aires"},"departamento":{"id":"06134","nombre":"Cañuelas"},"municipio":{"id":"060134","nombre":"Cañuelas"},"categoria":"Localidad simple","funcion":null,"centroide":{"lon":-58.8651882384585,"lat":-35.0708036574675}},{"id":"06134040","nombre":"Cañuelas","fuente":"INDEC","provincia":{"id":"06","nombre":"Buenos Aires"},"departamento":{"id":"06134","nombre":"Cañuelas"},"municipio":{"id":"060134","nombre":"Cañuelas"},"categoria":"Componente de localidad compuesta","funcion":null,"centroide":{"lon":-58.7620353075768,"lat":-35.0537825523544}},{"id":"06134060","nombre":"Gobernador Udaondo","fuente":"INDEC","provincia":{"id":"06","nombre":"Buenos Aires"},"departamento":{"id":"06134","nombre":"Cañuelas"},"municipio":{"id":"060134","nombre":"Cañuelas"},"categoria":"Localidad simple","funcion":null,"centroide":{"lon":-58.5960799765629,"lat":-35.3026119244728}},{"id":"06134070","nombre":"Máximo Paz","fuente":"INDEC","provincia":{"id":"06","nombre":"Buenos Aires"},"departamento":{"id":"06134","nombre":"Cañuelas"},"municipio":{"id":"060134","nombre":"Cañuelas"},"categoria":"Componente de localidad compuesta","funcion":null,"centroide":{"lon":-58.6160962899907,"lat":-34.9405321574521}},{"id":"06134030","nombre":"Barrio San Esteban - Barrio Los Pozos","fuente":"INDEC","provincia":{"id":"06","nombre":"Buenos Aires"},"departamento":{"id":"06134","nombre":"Cañuelas"},"municipio":{"id":"060134","nombre":"Cañuelas"},"categoria":"Localidad simple","funcion":null,"centroide":{"lon":-58.7288391299837,"lat":-34.9609056053012}},{"id":"06134080","nombre":"Uribelarrea","fuente":"INDEC","provincia":{"id":"06","nombre":"Buenos Aires"},"departamento":{"id":"06134","nombre":"Cañuelas"},"municipio":{"id":"060134","nombre":"Cañuelas"},"categoria":"Localidad simple","funcion":null,"centroide":{"lon":-58.8921038171189,"lat":-35.1237982777546}},{"id":"06140010","nombre":"Capitán Sarmiento","fuente":"INDEC","provincia":{"id":"06","nombre":"Buenos Aires"},"departamento":{"id":"06140","nombre":"Capitán Sarmiento"},"municipio":{"id":"060140","nombre":"Capitán Sarmiento"},"categoria":"Localidad simple","funcion":null,"centroide":{"lon":-59.7936095270191,"lat":-34.1711412650938}},{"id":"06140020","nombre":"La Luisa","fuente":"INDEC","provincia":{"id":"06","nombre":"Buenos Aires"},"departamento":{"id":"06140","nombre":"Capitán Sarmiento"},"municipio":{"id":"060140","nombre":"Capitán Sarmiento"},"categoria":"Localidad simple","funcion":null,"centroide":{"lon":-59.9351303723456,"lat":-34.1327038909145}},{"id":"06147010","nombre":"Bellocq","fuente":"INDEC","provincia":{"id":"06","nombre":"Buenos Aires"},"departamento":{"id":"06147","nombre":"Carlos Casares"},"municipio":{"id":"060147","nombre":"Carlos Casares"},"categoria":"Localidad simple","funcion":null,"centroide":{"lon":-61.5341080736114,"lat":-35.9166020863319}},{"id":"06147020","nombre":"Cadret","fuente":"INDEC","provincia":{"id":"06","nombre":"Buenos Aires"},"departamento":{"id":"06147","nombre":"Carlos Casares"},"municipio":{"id":"060147","nombre":"Carlos Casares"},"categoria":"Localidad simple","funcion":null,"centroide":{"lon":-61.3356838592444,"lat":-35.7710874699556}},{"id":"06147030","nombre":"Carlos Casares","fuente":"INDEC","provincia":{"id":"06","nombre":"Buenos Aires"},"departamento":{"id":"06147","nombre":"Carlos Casares"},"municipio":{"id":"060147","nombre":"Carlos Casares"},"categoria":"Localidad simple","funcion":null,"centroide":{"lon":-61.3654517691007,"lat":-35.6224974038479}},{"id":"06147040","nombre":"Colonia Mauricio","fuente":"INDEC","provincia":{"id":"06","nombre":"Buenos Aires"},"departamento":{"id":"06147","nombre":"Carlos Casares"},"municipio":{"id":"060147","nombre":"Carlos Casares"},"categoria":"Localidad simple","funcion":null,"centroide":{"lon":-61.4370152297164,"lat":-35.5243348591657}},{"id":"06147050","nombre":"Hortensia","fuente":"INDEC","provincia":{"id":"06","nombre":"Buenos Aires"},"departamento":{"id":"06147","nombre":"Carlos Casares"},"municipio":{"id":"060147","nombre":"Carlos Casares"},"categoria":"Localidad simple","funcion":null,"centroide":{"lon":-61.2628781074639,"lat":-35.9242891886846}},{"id":"06147060","nombre":"La Sofía","fuente":"INDEC","provincia":{"id":"06","nombre":"Buenos Aires"},"departamento":{"id":"06147","nombre":"Carlos Casares"},"municipio":{"id":"060147","nombre":"Carlos Casares"},"categoria":"Localidad simple","funcion":null,"centroide":{"lon":-61.1692596674282,"lat":-35.6994135732127}},{"id":"06147070","nombre":"Mauricio Hirsch","fuente":"INDEC","provincia":{"id":"06","nombre":"Buenos Aires"},"departamento":{"id":"06147","nombre":"Carlos Casares"},"municipio":{"id":"060147","nombre":"Carlos Casares"},"categoria":"Localidad simple","funcion":null,"centroide":{"lon":-61.5247935122897,"lat":-35.581311755967}},{"id":"06147080","nombre":"Moctezuma","fuente":"INDEC","provincia":{"id":"06","nombre":"Buenos Aires"},"departamento":{"id":"06147","nombre":"Carlos Casares"},"municipio":{"id":"060147","nombre":"Carlos Casares"},"categoria":"Localidad simple","funcion":null,"centroide":{"lon":-61.4957491091046,"lat":-35.4779088059904}},{"id":"06147090","nombre":"Ordoqui","fuente":"INDEC","provincia":{"id":"06","nombre":"Buenos Aires"},"departamento":{"id":"06147","nombre":"Carlos Casares"},"municipio":{"id":"060147","nombre":"Carlos Casares"},"categoria":"Localidad simple","funcion":null,"centroide":{"lon":-61.1601270682213,"lat":-35.8804714044304}},{"id":"06147100","nombre":"Santo Tomás","fuente":"INDEC","provincia":{"id":"06","nombre":"Buenos Aires"},"departamento":{"id":"06147","nombre":"Carlos Casares"},"municipio":{"id":"060147","nombre":"Carlos Casares"},"categoria":"Localidad simple","funcion":null,"centroide":{"lon":-61.5068727426589,"lat":-35.6723997385324}},{"id":"06147110","nombre":"Smith","fuente":"INDEC","provincia":{"id":"06","nombre":"Buenos Aires"},"departamento":{"id":"06147","nombre":"Carlos Casares"},"municipio":{"id":"060147","nombre":"Carlos Casares"},"categoria":"Localidad simple","funcion":null,"centroide":{"lon":-61.5924644875119,"lat":-35.4953401123334}},{"id":"06154010","nombre":"Carlos Tejedor","fuente":"INDEC","provincia":{"id":"06","nombre":"Buenos Aires"},"departamento":{"id":"06154","nombre":"Carlos Tejedor"},"municipio":{"id":"060154","nombre":"Carlos Tejedor"},"categoria":"Localidad simple","funcion":null,"centroide":{"lon":-62.4198031983956,"lat":-35.3915357848245}},{"id":"06154020","nombre":"Colonia Seré","fuente":"INDEC","provincia":{"id":"06","nombre":"Buenos Aires"},"departamento":{"id":"06154","nombre":"Carlos Tejedor"},"municipio":{"id":"060154","nombre":"Carlos Tejedor"},"categoria":"Localidad simple","funcion":null,"centroide":{"lon":-62.7277873563898,"lat":-35.436445515524}},{"id":"06154030","nombre":"Curarú","fuente":"INDEC","provincia":{"id":"06","nombre":"Buenos Aires"},"departamento":{"id":"06154","nombre":"Carlos Tejedor"},"municipio":{"id":"060154","nombre":"Carlos Tejedor"},"categoria":"Localidad simple","funcion":null,"centroide":{"lon":-62.1945835034824,"lat":-35.6408427379706}},{"id":"06154040","nombre":"Timote","fuente":"INDEC","provincia":{"id":"06","nombre":"Buenos Aires"},"departamento":{"id":"06154","nombre":"Carlos Tejedor"},"municipio":{"id":"060154","nombre":"Carlos Tejedor"},"categoria":"Localidad simple","funcion":null,"centroide":{"lon":-62.2228786543666,"lat":-35.3474270322638}},{"id":"06154050","nombre":"Tres Algarrobos","fuente":"INDEC","provincia":{"id":"06","nombre":"Buenos Aires"},"departamento":{"id":"06154","nombre":"Carlos Tejedor"},"municipio":{"id":"060154","nombre":"Carlos Tejedor"},"categoria":"Localidad simple","funcion":null,"centroide":{"lon":-62.774391469815,"lat":-35.1955750860716}},{"id":"06161010","nombre":"Carmen de Areco","fuente":"INDEC","provincia":{"id":"06","nombre":"Buenos Aires"},"departamento":{"id":"06161","nombre":"Carmen de Areco"},"municipio":{"id":"060161","nombre":"Carmen de Areco"},"categoria":"Localidad simple","funcion":null,"centroide":{"lon":-59.8226958860968,"lat":-34.3766064269391}},{"id":"06161020","nombre":"Pueblo Gouin","fuente":"INDEC","provincia":{"id":"06","nombre":"Buenos Aires"},"departamento":{"id":"06161","nombre":"Carmen de Areco"},"municipio":{"id":"060161","nombre":"Carmen de Areco"},"categoria":"Localidad simple","funcion":null,"centroide":{"lon":-59.802724139001,"lat":-34.4951304870249}},{"id":"06161030","nombre":"Tres Sargentos","fuente":"INDEC","provincia":{"id":"06","nombre":"Buenos Aires"},"departamento":{"id":"06161","nombre":"Carmen de Areco"},"municipio":{"id":"060161","nombre":"Carmen de Areco"},"categoria":"Localidad simple","funcion":null,"centroide":{"lon":-59.9993946648954,"lat":-34.4664671152993}},{"id":"06168010","nombre":"Castelli","fuente":"INDEC","provincia":{"id":"06","nombre":"Buenos Aires"},"departamento":{"id":"06168","nombre":"Castelli"},"municipio":{"id":"060168","nombre":"Castelli"},"categoria":"Localidad simple","funcion":null,"centroide":{"lon":-57.8075587532052,"lat":-36.0909119355864}},{"id":"06168020","nombre":"Centro Guerrero","fuente":"INDEC","provincia":{"id":"06","nombre":"Buenos Aires"},"departamento":{"id":"06168","nombre":"Castelli"},"municipio":{"id":"060168","nombre":"Castelli"},"categoria":"Localidad simple","funcion":null,"centroide":{"lon":-57.8170575578428,"lat":-36.0543706674152}},{"id":"06168030","nombre":"Cerro de la Gloria","fuente":"INDEC","provincia":{"id":"06","nombre":"Buenos Aires"},"departamento":{"id":"06168","nombre":"Castelli"},"municipio":{"id":"060168","nombre":"Castelli"},"categoria":"Localidad simple","funcion":null,"centroide":{"lon":-57.449939330161,"lat":-35.9754936073803}},{"id":"06175010","nombre":"Colón","fuente":"INDEC","provincia":{"id":"06","nombre":"Buenos Aires"},"departamento":{"id":"06175","nombre":"Colón"},"municipio":{"id":"060175","nombre":"Colón"},"categoria":"Localidad simple","funcion":null,"centroide":{"lon":-61.0995386590334,"lat":-33.8970987034335}},{"id":"06175040","nombre":"Villa Manuel Pomar","fuente":"INDEC","provincia":{"id":"06","nombre":"Buenos Aires"},"departamento":{"id":"06175","nombre":"Colón"},"municipio":{"id":"060175","nombre":"Colón"},"categoria":"Componente de localidad compuesta","funcion":null,"centroide":{"lon":-60.9423812364513,"lat":-33.913327613079}},{"id":"06175020","nombre":"Pearson","fuente":"INDEC","provincia":{"id":"06","nombre":"Buenos Aires"},"departamento":{"id":"06175","nombre":"Colón"},"municipio":{"id":"060175","nombre":"Colón"},"categoria":"Localidad simple","funcion":null,"centroide":{"lon":-60.8933098448772,"lat":-33.6533925621561}},{"id":"06175030","nombre":"Sarasa","fuente":"INDEC","provincia":{"id":"06","nombre":"Buenos Aires"},"departamento":{"id":"06175","nombre":"Colón"},"municipio":{"id":"060175","nombre":"Colón"},"categoria":"Localidad simple","funcion":null,"centroide":{"lon":-61.2017061687434,"lat":-34.0481637070693}},{"id":"06182010","nombre":"Bajo Hondo","fuente":"INDEC","provincia":{"id":"06","nombre":"Buenos Aires"},"departamento":{"id":"06182","nombre":"Coronel de Marina Leonardo Rosales"},"municipio":{"id":"060182","nombre":"Coronel de Marina Leonardo Rosales"},"categoria":"Localidad simple","funcion":null,"centroide":{"lon":-61.9205918985195,"lat":-38.7627932127508}},{"id":"06182020","nombre":"Pehuen Co","fuente":"INDEC","provincia":{"id":"06","nombre":"Buenos Aires"},"departamento":{"id":"06182","nombre":"Coronel de Marina Leonardo Rosales"},"municipio":{"id":"060182","nombre":"Coronel de Marina Leonardo Rosales"},"categoria":"Localidad simple","funcion":null,"centroide":{"lon":-61.5519913516415,"lat":-38.9957704088246}},{"id":"06182060","nombre":"Pago Chico","fuente":"INDEC","provincia":{"id":"06","nombre":"Buenos Aires"},"departamento":{"id":"06182","nombre":"Coronel de Marina Leonardo Rosales"},"municipio":{"id":"060182","nombre":"Coronel de Marina Leonardo Rosales"},"categoria":"Localidad simple","funcion":null,"centroide":{"lon":-62.1195194756714,"lat":-38.7839402799391}},{"id":"06182030","nombre":"Punta Alta","fuente":"INDEC","provincia":{"id":"06","nombre":"Buenos Aires"},"departamento":{"id":"06182","nombre":"Coronel de Marina Leonardo Rosales"},"municipio":{"id":"060182","nombre":"Coronel de Marina Leonardo Rosales"},"categoria":"Localidad simple","funcion":null,"centroide":{"lon":-62.0750094941145,"lat":-38.8804399423486}},{"id":"06182050","nombre":"Villa General Arias","fuente":"INDEC","provincia":{"id":"06","nombre":"Buenos Aires"},"departamento":{"id":"06182","nombre":"Coronel de Marina Leonardo Rosales"},"municipio":{"id":"060182","nombre":"Coronel de Marina Leonardo Rosales"},"categoria":"Localidad simple","funcion":null,"centroide":{"lon":-62.1010331102634,"lat":-38.809530417102}},{"id":"06189010","nombre":"Aparicio","fuente":"INDEC","provincia":{"id":"06","nombre":"Buenos Aires"},"departamento":{"id":"06189","nombre":"Coronel Dorrego"},"municipio":{"id":"060189","nombre":"Coronel Dorrego"},"categoria":"Localidad simple","funcion":null,"centroide":{"lon":-60.8834808947984,"lat":-38.6224732524339}},{"id":"06189020","nombre":"Marisol","fuente":"INDEC","provincia":{"id":"06","nombre":"Buenos Aires"},"departamento":{"id":"06189","nombre":"Coronel Dorrego"},"municipio":{"id":"060189","nombre":"Coronel Dorrego"},"categoria":"Localidad simple","funcion":null,"centroide":{"lon":-60.5353348205853,"lat":-38.9226422344049}},{"id":"06189030","nombre":"Coronel Dorrego","fuente":"INDEC","provincia":{"id":"06","nombre":"Buenos Aires"},"departamento":{"id":"06189","nombre":"Coronel Dorrego"},"municipio":{"id":"060189","nombre":"Coronel Dorrego"},"categoria":"Localidad simple","funcion":null,"centroide":{"lon":-61.2884948879698,"lat":-38.7166239148323}},{"id":"06189040","nombre":"El Perdido","fuente":"INDEC","provincia":{"id":"06","nombre":"Buenos Aires"},"departamento":{"id":"06189","nombre":"Coronel Dorrego"},"municipio":{"id":"060189","nombre":"Coronel Dorrego"},"categoria":"Localidad simple","funcion":null,"centroide":{"lon":-61.0863373821222,"lat":-38.6772065411764}},{"id":"06189050","nombre":"Faro","fuente":"INDEC","provincia":{"id":"06","nombre":"Buenos Aires"},"departamento":{"id":"06189","nombre":"Coronel Dorrego"},"municipio":{"id":"060189","nombre":"Coronel Dorrego"},"categoria":"Localidad simple","funcion":null,"centroide":{"lon":-61.0692062978204,"lat":-38.7978615475205}},{"id":"06189060","nombre":"Irene","fuente":"INDEC","provincia":{"id":"06","nombre":"Buenos Aires"},"departamento":{"id":"06189","nombre":"Coronel Dorrego"},"municipio":{"id":"060189","nombre":"Coronel Dorrego"},"categoria":"Localidad simple","funcion":null,"centroide":{"lon":-60.6968840425832,"lat":-38.5546026656424}},{"id":"06189070","nombre":"Oriente","fuente":"INDEC","provincia":{"id":"06","nombre":"Buenos Aires"},"departamento":{"id":"06189","nombre":"Coronel Dorrego"},"municipio":{"id":"060189","nombre":"Coronel Dorrego"},"categoria":"Localidad simple","funcion":null,"centroide":{"lon":-60.6094457463082,"lat":-38.744365690742}},{"id":"06189080","nombre":"Paraje La Ruta","fuente":"INDEC","provincia":{"id":"06","nombre":"Buenos Aires"},"departamento":{"id":"06189","nombre":"Coronel Dorrego"},"municipio":{"id":"060189","nombre":"Coronel Dorrego"},"categoria":"Localidad simple","funcion":null,"centroide":{"lon":-60.8650902274097,"lat":-38.6522338778634}},{"id":"06189090","nombre":"San Román","fuente":"INDEC","provincia":{"id":"06","nombre":"Buenos Aires"},"departamento":{"id":"06189","nombre":"Coronel Dorrego"},"municipio":{"id":"060189","nombre":"Coronel Dorrego"},"categoria":"Localidad simple","funcion":null,"centroide":{"lon":-61.5385545095186,"lat":-38.7413132543129}},{"id":"06196010","nombre":"Coronel Pringles","fuente":"INDEC","provincia":{"id":"06","nombre":"Buenos Aires"},"departamento":{"id":"06196","nombre":"Coronel Pringles"},"municipio":{"id":"060196","nombre":"Coronel Pringles"},"categoria":"Localidad simple","funcion":null,"centroide":{"lon":-61.3567519838836,"lat":-37.9788088725912}},{"id":"06196020","nombre":"El Divisorio","fuente":"INDEC","provincia":{"id":"06","nombre":"Buenos Aires"},"departamento":{"id":"06196","nombre":"Coronel Pringles"},"municipio":{"id":"060196","nombre":"Coronel Pringles"},"categoria":"Localidad simple","funcion":null,"centroide":{"lon":-61.4450423393234,"lat":-38.3237183376666}},{"id":"06196030","nombre":"El Pensamiento","fuente":"INDEC","provincia":{"id":"06","nombre":"Buenos Aires"},"departamento":{"id":"06196","nombre":"Coronel Pringles"},"municipio":{"id":"060196","nombre":"Coronel Pringles"},"categoria":"Localidad simple","funcion":null,"centroide":{"lon":-61.3148119543108,"lat":-38.2164502159548}},{"id":"06196040","nombre":"Indio Rico","fuente":"INDEC","provincia":{"id":"06","nombre":"Buenos Aires"},"departamento":{"id":"06196","nombre":"Coronel Pringles"},"municipio":{"id":"060196","nombre":"Coronel Pringles"},"categoria":"Localidad simple","funcion":null,"centroide":{"lon":-60.885334361923,"lat":-38.3304231683786}},{"id":"06196050","nombre":"Lartigau","fuente":"INDEC","provincia":{"id":"06","nombre":"Buenos Aires"},"departamento":{"id":"06196","nombre":"Coronel Pringles"},"municipio":{"id":"060196","nombre":"Coronel Pringles"},"categoria":"Localidad simple","funcion":null,"centroide":{"lon":-61.5670016498582,"lat":-38.4475134906813}},{"id":"06203010","nombre":"Cascada","fuente":"INDEC","provincia":{"id":"06","nombre":"Buenos Aires"},"departamento":{"id":"06203","nombre":"Coronel Suárez"},"municipio":{"id":"060203","nombre":"Coronel Suárez"},"categoria":"Localidad simple","funcion":null,"centroide":{"lon":-62.2972094097209,"lat":-37.2923902591232}},{"id":"06203020","nombre":"Coronel Suárez","fuente":"INDEC","provincia":{"id":"06","nombre":"Buenos Aires"},"departamento":{"id":"06203","nombre":"Coronel Suárez"},"municipio":{"id":"060203","nombre":"Coronel Suárez"},"categoria":"Localidad simple","funcion":null,"centroide":{"lon":-61.9329171751099,"lat":-37.4585806162675}},{"id":"06203030","nombre":"Curamalal","fuente":"INDEC","provincia":{"id":"06","nombre":"Buenos Aires"},"departamento":{"id":"06203","nombre":"Coronel Suárez"},"municipio":{"id":"060203","nombre":"Coronel Suárez"},"categoria":"Localidad simple","funcion":null,"centroide":{"lon":-62.1043498687485,"lat":-37.4838873061271}},{"id":"06203040","nombre":"D'Orbigny","fuente":"INDEC","provincia":{"id":"06","nombre":"Buenos Aires"},"departamento":{"id":"06203","nombre":"Coronel Suárez"},"municipio":{"id":"060203","nombre":"Coronel Suárez"},"categoria":"Localidad simple","funcion":null,"centroide":{"lon":-61.707970624441,"lat":-37.676551866332}},{"id":"06203050","nombre":"Huanguelén","fuente":"INDEC","provincia":{"id":"06","nombre":"Buenos Aires"},"departamento":{"id":"06203","nombre":"Coronel Suárez"},"municipio":{"id":"060203","nombre":"Coronel Suárez"},"categoria":"Localidad simple","funcion":null,"centroide":{"lon":-61.9325364000869,"lat":-37.0588083117535}},{"id":"06203060","nombre":"Pasman","fuente":"INDEC","provincia":{"id":"06","nombre":"Buenos Aires"},"departamento":{"id":"06203","nombre":"Coronel Suárez"},"municipio":{"id":"060203","nombre":"Coronel Suárez"},"categoria":"Localidad simple","funcion":null,"centroide":{"lon":-62.1647437066642,"lat":-37.2236356964937}},{"id":"06203070","nombre":"San José","fuente":"INDEC","provincia":{"id":"06","nombre":"Buenos Aires"},"departamento":{"id":"06203","nombre":"Coronel Suárez"},"municipio":{"id":"060203","nombre":"Coronel Suárez"},"categoria":"Localidad simple","funcion":null,"centroide":{"lon":-61.9177940926866,"lat":-37.508031703707}},{"id":"06203080","nombre":"Santa María","fuente":"INDEC","provincia":{"id":"06","nombre":"Buenos Aires"},"departamento":{"id":"06203","nombre":"Coronel Suárez"},"municipio":{"id":"060203","nombre":"Coronel Suárez"},"categoria":"Localidad simple","funcion":null,"centroide":{"lon":-61.8757751325368,"lat":-37.5547048681}},{"id":"06203090","nombre":"Santa Trinidad","fuente":"INDEC","provincia":{"id":"06","nombre":"Buenos Aires"},"departamento":{"id":"06203","nombre":"Coronel Suárez"},"municipio":{"id":"060203","nombre":"Coronel Suárez"},"categoria":"Localidad simple","funcion":null,"centroide":{"lon":-61.9244828657652,"lat":-37.4881416168728}},{"id":"06203100","nombre":"Villa La Arcadia","fuente":"INDEC","provincia":{"id":"06","nombre":"Buenos Aires"},"departamento":{"id":"06203","nombre":"Coronel Suárez"},"municipio":{"id":"060203","nombre":"Coronel Suárez"},"categoria":"Componente de localidad compuesta","funcion":null,"centroide":{"lon":-61.7881767397627,"lat":-38.1361050184231}},{"id":"06210050","nombre":"Castilla","fuente":"INDEC","provincia":{"id":"06","nombre":"Buenos Aires"},"departamento":{"id":"06210","nombre":"Chacabuco"},"municipio":{"id":"060210","nombre":"Chacabuco"},"categoria":"Localidad simple","funcion":null,"centroide":{"lon":-59.9061262332783,"lat":-34.6133062542013}},{"id":"06210010","nombre":"Chacabuco","fuente":"INDEC","provincia":{"id":"06","nombre":"Buenos Aires"},"departamento":{"id":"06210","nombre":"Chacabuco"},"municipio":{"id":"060210","nombre":"Chacabuco"},"categoria":"Localidad simple","funcion":null,"centroide":{"lon":-60.4712581328409,"lat":-34.642035475954}},{"id":"06210020","nombre":"Los Ángeles","fuente":"INDEC","provincia":{"id":"06","nombre":"Buenos Aires"},"departamento":{"id":"06210","nombre":"Chacabuco"},"municipio":{"id":"060210","nombre":"Chacabuco"},"categoria":"Localidad simple","funcion":null,"centroide":{"lon":-60.1801977529447,"lat":-34.457003289896}},{"id":"06210030","nombre":"O'Higgins","fuente":"INDEC","provincia":{"id":"06","nombre":"Buenos Aires"},"departamento":{"id":"06210","nombre":"Chacabuco"},"municipio":{"id":"060210","nombre":"Chacabuco"},"categoria":"Localidad simple","funcion":null,"centroide":{"lon":-60.6998804295248,"lat":-34.5855138159791}},{"id":"06210040","nombre":"Rawson","fuente":"INDEC","provincia":{"id":"06","nombre":"Buenos Aires"},"departamento":{"id":"06210","nombre":"Chacabuco"},"municipio":{"id":"060210","nombre":"Chacabuco"},"categoria":"Localidad simple","funcion":null,"centroide":{"lon":-60.0668001973042,"lat":-34.6050468131252}},{"id":"06218030","nombre":"Barrio Lomas Altas","fuente":"INDEC","provincia":{"id":"06","nombre":"Buenos Aires"},"departamento":{"id":"06218","nombre":"Chascomús"},"municipio":{"id":"060218","nombre":"Chascomús"},"categoria":"Localidad simple","funcion":null,"centroide":{"lon":-58.0681446993955,"lat":-35.5847232302883}},{"id":"06218010","nombre":"Chascomús","fuente":"INDEC","provincia":{"id":"06","nombre":"Buenos Aires"},"departamento":{"id":"06218","nombre":"Chascomús"},"municipio":{"id":"060218","nombre":"Chascomús"},"categoria":"Localidad simple","funcion":null,"centroide":{"lon":-58.0084623060577,"lat":-35.5770527211859}},{"id":"06218060","nombre":"Laguna Vitel","fuente":"INDEC","provincia":{"id":"06","nombre":"Buenos Aires"},"departamento":{"id":"06218","nombre":"Chascomús"},"municipio":{"id":"060218","nombre":"Chascomús"},"categoria":"Localidad simple","funcion":null,"centroide":{"lon":-58.1429704879903,"lat":-35.5366434408877}},{"id":"06218040","nombre":"Villa Parque Girado","fuente":"INDEC","provincia":{"id":"06","nombre":"Buenos Aires"},"departamento":{"id":"06218","nombre":"Chascomús"},"municipio":{"id":"060218","nombre":"Chascomús"},"categoria":"Localidad simple","funcion":null,"centroide":{"lon":-58.0180623024682,"lat":-35.6262316539797}},{"id":"06224080","nombre":"Benítez","fuente":"INDEC","provincia":{"id":"06","nombre":"Buenos Aires"},"departamento":{"id":"06224","nombre":"Chivilcoy"},"municipio":{"id":"060224","nombre":"Chivilcoy"},"categoria":"Localidad simple","funcion":null,"centroide":{"lon":-60.1273005512641,"lat":-34.9669790631044}},{"id":"06224010","nombre":"Chivilcoy","fuente":"INDEC","provincia":{"id":"06","nombre":"Buenos Aires"},"departamento":{"id":"06224","nombre":"Chivilcoy"},"municipio":{"id":"060224","nombre":"Chivilcoy"},"categoria":"Localidad simple","funcion":null,"centroide":{"lon":-60.0190641653169,"lat":-34.8968623417202}},{"id":"06224020","nombre":"Emilio Ayarza","fuente":"INDEC","provincia":{"id":"06","nombre":"Buenos Aires"},"departamento":{"id":"06224","nombre":"Chivilcoy"},"municipio":{"id":"060224","nombre":"Chivilcoy"},"categoria":"Localidad simple","funcion":null,"centroide":{"lon":-60.0390888584043,"lat":-34.7435652931814}},{"id":"06224030","nombre":"Gorostiaga","fuente":"INDEC","provincia":{"id":"06","nombre":"Buenos Aires"},"departamento":{"id":"06224","nombre":"Chivilcoy"},"municipio":{"id":"060224","nombre":"Chivilcoy"},"categoria":"Localidad simple","funcion":null,"centroide":{"lon":-59.8660452868395,"lat":-34.838818420922}},{"id":"06224040","nombre":"La Rica","fuente":"INDEC","provincia":{"id":"06","nombre":"Buenos Aires"},"departamento":{"id":"06224","nombre":"Chivilcoy"},"municipio":{"id":"060224","nombre":"Chivilcoy"},"categoria":"Localidad simple","funcion":null,"centroide":{"lon":-59.863930207049,"lat":-34.9739189538858}},{"id":"06224050","nombre":"Moquehuá","fuente":"INDEC","provincia":{"id":"06","nombre":"Buenos Aires"},"departamento":{"id":"06224","nombre":"Chivilcoy"},"municipio":{"id":"060224","nombre":"Chivilcoy"},"categoria":"Localidad simple","funcion":null,"centroide":{"lon":-59.7757242002291,"lat":-35.0921276618456}},{"id":"06224060","nombre":"Ramón Biaus","fuente":"INDEC","provincia":{"id":"06","nombre":"Buenos Aires"},"departamento":{"id":"06224","nombre":"Chivilcoy"},"municipio":{"id":"060224","nombre":"Chivilcoy"},"categoria":"Localidad simple","funcion":null,"centroide":{"lon":-59.9241033355477,"lat":-35.0853540461537}},{"id":"06224070","nombre":"San Sebastián","fuente":"INDEC","provincia":{"id":"06","nombre":"Buenos Aires"},"departamento":{"id":"06224","nombre":"Chivilcoy"},"municipio":{"id":"060224","nombre":"Chivilcoy"},"categoria":"Localidad simple","funcion":null,"centroide":{"lon":-59.702226872066,"lat":-34.9431479827078}},{"id":"06231010","nombre":"Andant","fuente":"INDEC","provincia":{"id":"06","nombre":"Buenos Aires"},"departamento":{"id":"06231","nombre":"Daireaux"},"municipio":{"id":"060231","nombre":"Daireaux"},"categoria":"Localidad simple","funcion":null,"centroide":{"lon":-62.1362798197113,"lat":-36.5603570671048}},{"id":"06231020","nombre":"Arboledas","fuente":"INDEC","provincia":{"id":"06","nombre":"Buenos Aires"},"departamento":{"id":"06231","nombre":"Daireaux"},"municipio":{"id":"060231","nombre":"Daireaux"},